name,latitude_deg,longitude_deg
Total Rf Heliport,40.07080078125,-74.93360137939453
Aero B Ranch Airport,38.704022,-101.473911
Lowell Field,59.947733,-151.692524
Epps Airpark,34.86479949951172,-86.77030181884766
Newport Hospital & Clinic Heliport,35.6087,-91.254898
Fulton Airport,34.9428028,-97.8180194
Cordes Airport,34.305599212646484,-112.16500091552734
Goldstone (GTS) Airport,35.35474,-116.885329
Williams Ag Airport,39.427188,-121.763427
Kitchen Creek Helibase Heliport,32.7273736,-116.4597417
Cass Field,40.622202,-104.344002
Grass Patch Airport,28.64550018310547,-82.21900177001953
Ringhaver Heliport,28.846599578857422,-82.34539794921875
River Oak Airport,27.230899810791016,-80.96920013427734
Lt World Airport,33.76750183105469,-84.06829833984375
Caffrey Heliport,33.889245,-84.73793
Kaupulehu Heliport,19.832715,-155.980233
Delta Shores Airport,48.145301818847656,-116.21399688720703
Goltl Airport,39.724028,-101.395994
Bailey Generation Station Heliport,41.644501,-87.122803
Hammer Airport,41.97840118408203,-89.5604019165039
St Mary Medical Center Heliport,41.51139831542969,-87.2605972290039
Hayenga's Cant Find Farms Airport,40.02560043334961,-89.1229019165039
Hayden Farm Airport,38.72779846191406,-94.93049621582031
Robbins Roost Airport,37.409400939941406,-84.61969757080078
Shell Chemical East Site Heliport,30.191944,-90.980833
Ac & R Components Heliport,39.66529846191406,-89.70559692382812
Lejeune Airport,30.136299,-92.429398
Slater Field,38.75709915161133,-75.75379943847656
Dow Chemical Heliport,43.94940185546875,-86.41670227050781
Battle Lake Municipal Airport,46.29999923706055,-95.70030212402344
Cooper Flying Service Airport,37.202800750732,-94.412399291992
Livingston Healthcare Heliport,45.675,-110.52515
Bucks Airport,39.473201751708984,-75.1852035522461
North Raleigh Airport,36.085201263427734,-78.37139892578125
Colgate-Piscataway Heliport,40.52090072631836,-74.47460174560547
Cliche Cove Seaplane Base,44.8118612,-73.3698057
Weiss Airfield,42.90010070800781,-77.49970245361328
Exit 3 Airport,41.590476,-84.141583
Miami Valley Hospital Heliport,39.74530029296875,-84.1874008178711
Gull Bay Landing Airport,36.198598,-96.217693
Steel Systems Heliport,44.932899475097656,-123.12999725341797
R J D Heliport,39.94889831542969,-75.74690246582031
Ferrell Field,41.2995,-80.211111
Thomas Field,40.3778,-77.365303
McKenzie Bridge State Airport,44.181466,-122.086
Flying O Airport,34.0093994140625,-80.26719665527344
Homan Field,44.809158,-96.498897
SW Region FAA Heliport,32.8269,-97.305801
Tcjc-Northeast Campus Heliport,32.847599029541016,-97.18949890136719
Ragsdale Road Airport,35.515899658203125,-85.95359802246094
Alpine Range Airport,32.607601165771484,-97.24199676513672
San Jacinto Methodist Hospital Heliport,29.7377,-94.980201
Clear Creek Ranch Airport,37.247799,-112.821998
Vaughan Airport,36.57600021,-78.9991684
Groundhog Mountain Airport,36.663299560546875,-80.49949645996094
Lower Granite State Airport,46.672884,-117.441933
Howell Airport,47.17839813232422,-122.77200317382812
Northern Lite Airport,44.304298400878906,-89.05010223388672
Hawks Run Airport,46.25,-117.2490005493164
Lazy J. Aerodrome,38.82889938354492,-79.86609649658203
Mountain View Regional Hospital Heliport,42.840361,-106.224443
L P Askew Farms Airport,33.03340148925781,-101.93399810791016
Purkeypile Airport,62.943599700927734,-152.27000427246094
Providence Seward Medical Center Heliport,60.105873975399994,-149.446249008
Ware Island Airport,32.94599914550781,-86.51390075683594
DeQueen Medical Center Heliport,34.047456,-94.354023
Yat Heliport,34.607406,-111.8609
Grant Airport,43.341701507568,-85.775001525879
SCE Lugo Substation Heliport,34.368241,-117.370059
Swansboro Country Airport,38.79990005493164,-120.73400115966797
Los Angeles County Sheriff's Department Heliport,34.03779983520508,-118.15399932861328
St Vincent General Hospital Heliport,39.24530029296875,-106.24600219726562
Berlin Fairgrounds Heliport,41.62730026245117,-72.72750091552734
Rybolt Ranch Airport,28.589399337768555,-81.14420318603516
Advent Health Altamonte Springs Heliport,28.666639,-81.3697
Cedar Knoll Flying Ranch Airport,28.78190040588379,-81.1592025756836
Medical Center Heliport,32.47930145263672,-84.9791030883789
The Farm Airport,32.674400329589844,-82.77110290527344
Stender Airport,41.66109848022461,-90.74130249023438
Lava Hot Springs Airport,42.6082,-112.031998
Myers Field,39.8849983215332,-86.50669860839844
Hoopeston Community Memorial Hospital Heliport,40.45859909057617,-87.65950012207031
Community Hospital Heliport,40.13090133666992,-85.69580078125
William E. Koenig Airport,39.01620101928711,-90.31819915771484
Hilliard Airpark,30.68630027770996,-81.90570068359375
Caldwell Municipal Airport,37.03609848022461,-97.5864028930664
Flying N Ranch Airport,38.54059982299805,-97.00330352783203
Lourdes Hospital Heliport,37.051700592041016,-88.64689636230469
Barham Airport,32.638999938964844,-91.77369689941406
Schumaier Restricted Landing Area,38.12580108642578,-89.46389770507812
Country Breeze Airport,30.722478,-91.077372
Compaq Andover Heliport,42.625099182128906,-71.18009948730469
Annapolis Seaplane Base,38.999199,-76.456001
Saint Peter's Seaplane Base,46.778900146484375,-68.50029754638672
Flow Through Terminal Heliport,43.04949951171875,-83.67970275878906
Barnes Seaplane Base,47.899600982666016,-92.55740356445312
Highway Patrol Troop C Headquarters Heliport,38.641700744628906,-90.48429870605469
Crystal Lakes Resort Airport,48.789100646972656,-114.87999725341797
Topsail Airpark,34.47529983520508,-77.5813980102539
Detour Airport,40.84360122680664,-100.65299987792969
Moore Airfield,43.6445,-72.086998
Albert Guido Memorial Heliport,40.741798400878906,-74.13710021972656
Champion Ranch Airport,33.008611,-104.540278
Lantana Ranch Airport,38.76390075683594,-119.0270004272461
Vassar Hospital Heliport,41.692415,-73.93683
Atrium Medical Center Heliport,39.497455,-84.313851
Avita Health System Galion Hospital Heliport,40.730267,-82.802022
Lawrence Airport,35.294498,-98.636496
Spring Creek Ranch East Airport,34.391667,-96.690833
Red & White Flying Service Airport,43.119301,-121.044997
Pine Heliport,40.655602,-80.050903
Bierly(Personal Use) Airport,40.930599212646484,-77.73889923095703
Nort's Resort Airport,41.59590148925781,-76.02960205078125
York Airport,35.032100677490234,-81.25279998779297
Thirty Thirty Matlock Office Center Heliport,32.69419860839844,-97.11579895019531
Smith Field,32.73759841918945,-96.4280014038086
Colonial Air Park,34.99589920043945,-89.73059844970703
St Joseph Hospital Heliport,32.7285,-97.324501
Clute Fire & EMS Station #1 Heliport,29.012067,-95.402119
Mims Farm Ultralightport,32.388115,-96.877398
Duckwater Airport,38.851600646972656,-115.63400268554688
La Sal Junction Airport,38.30830001831055,-109.39600372314453
Pickles Airport,39.125,-77.9250030518
Willapa Harbor Heliport,46.66320037841797,-123.81199645996094
Prehn Cranberry Company Airport,44.0099983215332,-90.38919830322266
Whidbey General Hospital Heliport,48.213401794433594,-122.68499755859375
Odyssey Heliport,47.518178,-122.210908
Keyhole Airport,44.347198486328125,-104.81099700927734
Ascension Seton Hays Heliport,30.007222,-97.853333
Meadowood Ranch Heliport,32.020198822021484,-95.74549865722656
Barefoot Airport,61.506147,-149.912825
Rustic Wilderness Airport,61.876907,-150.097626
Bass Field,30.37150001525879,-87.76439666748047
Three Rivers Airport,34.822445,-92.44442
Winchester Farm Airstrip,32.376401,-109.936996
Swepi Beta Platform Ellen Heliport,33.58250045776367,-118.12899780273438
Shannon Field,34.129600524902344,-90.52400207519531
Conover Air Lodge Airport,34.761101,-119.058998
Mc Cullough Airport,37.64329910279999,-106.04699707
Strangers Point Heliport,41.91960144042969,-72.44450378417969
Osborn Airfield,28.52669906616211,-81.87480163574219
Triple R Ranch Airport,30.950976,-86.635555
Cuchens Airport,30.642527,-86.118779
Doug Bolton Field,34.202598571777344,-83.42900085449219
Etowah Fields Airport,34.17530059814453,-84.92440032958984
K3 Helipad Heliport,21.36199951171875,-157.9510040283203
Boone County Hospital Heliport,42.05609893798828,-93.87799835205078
Morgan Ranch Airport,44.55550003051758,-115.30500030517578
King Ultralightport,40.06230163574219,-86.21050262451172
Diamond P. Field,40.208900451660156,-85.54080200195312
Condell Medical Center Heliport,42.274600982666016,-87.9572982788086
Jmj Landing Airport,39.222198486328125,-96.0552978515625
St Claire Healthcare Heliport,38.181441,-83.443319
Boone National Guard Heliport,38.190282,-84.906442
La State Police Troop G Heliport,32.53129959106445,-93.66020202636719
Windy Hill Heliport,30.148300170898438,-91.91899871826172
Cuttyhunk Heliport,41.419601,-70.927002
Garner Field,38.672544,-76.709739
Nadeau's Airfield,43.537467,-70.930685
Fairplains Airpark,43.157100677490234,-85.14849853515625
Greenbush Municipal Airport,48.686527,-96.191976
Troy Airpark,39.04999923706055,-91.03350067138672
Watts Field,34.100101470947266,-90.8468017578125
Barrett Field,47.2374,-111.74304
Timber Line Airpark,36.655612,-93.802387
Race City Heliport,35.540477,-80.598047
Benes Service Airport,41.074501037597656,-96.90450286865234
Iroquois Landing Seaplane Base,44.657100677490234,-71.21910095214844
Penske Heliport,40.55730056762695,-74.46710205078125
Paiute Meadows Airport,41.299551,-118.926709
Hansen Heliport,43.132598876953125,-75.65550231933594
Zimmerman Airport,41.376399993896484,-83.08329772949219
Murtha Airport,41.801998138427734,-80.56539916992188
Canon Heliport,35.458401,-97.525297
War Veterans Colony Heliport,34.811412,-95.307727
Rowena Dell Airport,45.68149948120117,-121.31600189208984
Stottle Memorial Heliport,40.403596,-77.556602
Lag Iii Heliport,40.43830108642578,-79.7699966430664
Peco Berwyn Heliport,40.06959915161133,-75.4552001953125
Cuylers Airport,18.464924,-66.363773
Hughes Ultralightport,41.90060043334961,-77.23030090332031
Harpers Airport,32.75849914550781,-81.22480010986328
Wise River Airport,45.769100189208984,-112.98200225830078
Matagorda Shore Facility Heliport,28.722177,-95.875813
Baylor Medical Center Heliport,32.39540100097656,-96.86419677734375
Ellis Field,35.780601501464844,-86.58419799804688
FWOMC Heliport,32.747601,-97.370003
The Palms At Kitty Hawk Airport,33.370403,-101.922882
Lucin Airport,41.36629867553711,-113.84300231933594
The Greenhouse Airport,38.435699462890625,-77.8572006225586
Northstar Aviation Heliport,36.63880157470703,-82.11669921875
Cawleys South Prairie Airport,47.15230178833008,-122.09400177001953
Beer Airport,45.031898498535156,-92.65579986572266
Fowler Field,48.74580001831055,-119.31900024414062
JLS Farms Airport,33.591319,-95.882864
Seidel Ranch Airport,30.147699,-97.662804
Trapper T Heliport,61.556055,-149.284527
Joe Clouds Seaplane Base,60.72722244262695,-151.13278198242188
Highland Medical Center Heliport,34.662604,-86.046774
Hscmh Heliport,34.357601165771484,-92.78849792480469
Thompson International Aviation Airport,31.430971,-110.088087
Grossmont Hospital Heliport,32.779484,-117.006952
Kugel-Strong Airport,40.2125015259,-104.744003296
Lake Persimmon Airstrip,27.353099822998047,-81.40809631347656
Tharpe Airport,30.8288,-85.731003
Ranger Heliport,26.683716,-80.186561
HIA Airport,32.5623056,-81.8576944
Clarks Dream Strip,39.644199,-83.018204
East Field,41.581902,-92.461304
Flying Y Ranch Airport,44.7943000793457,-116.53299713134766
Davis Field Ultralightport,37.9620018005,-87.7789001465
Wix Airport,41.40230178833008,-87.81670379638672
Heinzman Airport,40.18000030517578,-86.01249694824219
OSF St Anthony's Health Center Heliport,38.904999,-90.173401
Valley Grain Heliport,39.86470031738281,-95.26409912109375
Flying H Farms Airport,37.79169845581055,-87.54139709472656
Damien Heliport,30.199600219726562,-91.12789916992188
Fmc Nr 1 Heliport,32.159000396728516,-91.70800018310547
Lakeside Marina Seaplane Base,44.320899963378906,-69.8895034790039
Hadley Airport,42.393431,-72.551553
Upper Chesapeake Medical Center Heliport,39.518427,-76.346022
Maple Ridge Airport,44.08420181274414,-70.6272964477539
Harold Miller Heliport,43.550899505615234,-83.86219787597656
Nauerth Land Ranch Airport,43.62519836425781,-95.22470092773438
Cahoochie Airport,37.884499,-93.131599
Vicksburg Medical Center Heliport,32.31880187988281,-90.8832015991211
Cascade Field,47.267327,-111.71748
Mc Donnell Airport,38.4925003052,-94.41249847410002
Utirik Airport,11.222,169.852005
Pilots Ridge Airport,34.10430145263672,-77.9041976928711
Olafson Brothers Airport,48.626399993896484,-97.8290023803711
Hyde Ranch Airport,41.5463981628418,-99.3311996459961
Lorden Heliport,42.815399169921875,-71.12439727783203
AT&T Heliport,40.668713,-74.410152
Miner's Colfax Medical Center Heliport,36.862377,-104.442853
Johnston Medical Center Heliport,35.63027,-78.50392
Llama Ranch Airport,40.58440017700195,-115.2979965209961
Talmage Field,40.95840072631836,-72.716796875
Gibbs Field,41.416933,-83.018339
"Cleveland Clinic, Marymount Hospital Heliport",41.420312,-81.599552
Sahoma Lake Airport,36.041259,-96.161517
Bluebird Airport,35.012334,-97.702735
Powwatka Ridge Airport,45.85540008544922,-117.48400115966797
Collegeville Heliport,40.162899017333984,-75.4656982421875
M.P. Metals Heliport,41.066861,-76.180806
Sun View Field Airport,39.065947,-94.921703
Ziggy's Field,40.849998,-77.905602
Sandy River Airport,45.401798248291016,-122.22899627685547
Seacoast Medical Center Heliport,33.8650016784668,-78.66190338134766
Gay Hill Farm Airport,30.262699,-96.500198
Barronena Ranch Airport,27.490812,-98.669615
Eagles Landing Heliport,35.92250061035156,-83.57939910888672
Shannon Medical Center Heliport,31.4658,-100.43397
Brazos Polo Airport,29.632117,-95.932481
M D K Field Heliport,29.580929,-95.30508
AZ Minerals Corporation Airport,37.114384,-109.99014
Whipoorwill Springs Airport,38.66460037231445,-77.57969665527344
Spangle Field,47.408199310302734,-117.37200164794922
Zink Airport,44.028873,-88.883945
Aerostone Ranch Airport,45.875,-120.66999816894531
Lopez Medical Clinic Heliport,48.524894,-122.912394
Del Sol Medical Center Heliport,31.7574,-106.346895
Creekside Airport,31.318099975585938,-100.75399780273438
Flying W Ranch Airport,60.535833,-150.811387
Anniston AHP (Anniston Army Depot),33.62639999,-85.96720123
Saline Memorial Hospital Heliport,34.574319,-92.586047
(Old) Chinle Airport,36.147197,-109.560771
Gray Butte Field,34.5639,-117.675003
Hunt's Sky Ranch Airport,33.08169937133789,-116.44100189208984
Shingle Mill Heliport,41.75510025024414,-73.05239868164062
De Leon Municipal Airport,32.098801,-98.525325
Richards Field,25.558700561523438,-80.51509857177734
Tampa General Hospital Brandon Healthplex Heliport,27.929372,-82.336981
Cross Creek Farms Airport,29.240353,-81.222525
Columbus Southwest Airport,39.91120147705078,-83.18879699707031
Middlekoop Airport,41.08829879760742,-92.05460357666016
Lanham Field,43.87770080566406,-116.53700256347656
Turkey Run Airport,41.13059997558594,-84.99410247802734
Schertz Aerial Service - Hudson Airport,40.6375007629,-89.0070037842
Lake Gage Seaplane Base,41.701389,-85.113056
Van Gorder Airport,40.1786003112793,-88.56900024414062
Robinson Industries Heliport,38.97890090942383,-95.2197036743164
Natchez Trace Farm Airport,37.135101318359375,-85.78939819335938
Saint James Parish Hospital Heliport,30.051001,-90.703848
Brunner Airport,42.13610076904297,-88.28759765625
La National Guard Heliport,30.44610023498535,-91.10530090332031
Goddard Field,42.810908,-71.140959
Chesapeake City Heliport,39.51810073852539,-75.82140350341797
Beech Hill Airport,44.66669845581055,-69.8938980102539
Rapids Airway Airport,42.53450012207031,-84.62830352783203
Helblad Airport,47.985801696777344,-94.68689727783203
Airpark Private Airport,39.30120086669922,-91.45149993896484
Nick's Flying Service Inc Airport,32.939601898199996,-90.8373031616
Pluhar Airport,47.13749777779999,-106.488095
Western Wake Medical Center Heliport,35.739200592,-78.7822036743
Mc Connell Field Airport,41.159999847399995,-101.299003601
Emmanuel Airport,39.596801757799994,-75.2334976196
McGee 04 Heliport,34.775671,-77.392244
Kingston Ranch Airport,35.7555007935,-115.665000916
Klaverack Airport,42.262298584,-73.6961975098
Teufel Heliport,45.530833,-123.085556
Bossow Airport,41.2477,-81.100701
Stillwater Medical Center Heliport,36.1152992249,-97.079498291
Collins Landing Strip,44.7499008179,-120.200996399
S & C Distribution Center Heliport,39.87929916379999,-75.2287979126
Strawbridge & Clothier Exton Heliport,40.0306619,-75.63021
Emergency Helipad,34.842188,-82.60714
Cheyenne River Health Center Heliport,44.993124,-101.243011
Capitol National Bank Building Heliport,30.270262,-97.745275
Veterans Affairs Medical Center Heliport,29.699687,-95.39069
Hensley Airpark,36.183300018299995,-82.67890167239999
Hummingbird Heliport,30.553284,-97.605358
4D Ranch Airport,29.713072,-99.545642
Pocock Airport,31.732779,-97.369326
Navajo Mountain Airport,37.006689,-110.794701
Saguache Municipal Airport,38.0990833,-106.1743889
Russell County Medical Center Heliport,36.898,-82.078
Manquin Flight Park Ultralightport,37.7144012451,-77.21179962160001
Lightning Bolt Field Airport,44.4011001587,-72.26360321039999
Field of Dreams Airport,46.0228004456,-92.895401001
Ox Meadows Airport,47.5817985535,-117.43699646
Dutch Gap Airstrip,42.523399353,-88.0167007446
Stillwater Creek Airport,46.95835,-119.63864
West Virginia Univ. Hosp. Inc. Gnd. Pad #2 Heliport,39.6536111111,-79.9561111111
Pecan Field,33.283933,-98.402861
Schmidts Heliport,32.5821,-97.142502
Wasilla Creek Airpark,61.66830063,-149.1880035
Allen Stagefield Army Heliport,31.2311992645,-85.64969635010002
Ozark Skies Airpark,36.000633,-93.57025
Yuma Regional Medical Center Heliport,32.683452,-114.634346
Van Buren Seaplane Base,47.158901,-67.931999
Lost Hills Sheriff's Station Heliport,34.137798309299995,-118.713996887
Pope Valley Airport,38.6106987,-122.39099884
Rancho de Aereo Airport,40.214984,-104.984423
O And G Heliport,41.7737007141,-73.1162033081
Melanie's Airport,30.918899536132812,-86.21829986572266
Aventura Heliport,25.960899353027344,-80.13919830322266
Charlton Strip,26.52018,-81.41031
Raju Airport,32.0713996887207,-84.71440124511719
Spotts Field,43.13750076293945,-93.06829833984375
Running Creek Ranch Airport,45.914101,-114.835999
Reichhart Airport,41.02870178222656,-84.99720001220703
Classic Landings Airport,41.156700134277344,-88.0167007446289
Cooper Airport,39.641998291015625,-86.50420379638672
Hardy Airport,39.72589874267578,-89.26399993896484
Darbro Field,37.26620101928711,-95.95919799804688
High Point Farm Airport,38.187091,-84.93011
Cartersville Airport,37.53575,-84.407303
Greg's Flying Service Airport,32.26530075073242,-91.69779968261719
Midwest Heliport,41.749228,-87.935783
Grass Roots Airport,31.252148,-92.47569
Pauls Valley General Hospital Heliport,34.71979,-97.214237
Bentley Heliport,42.691200256347656,-70.91230010986328
Breezecroft Airport,39.244232,-76.198661
Drisko Airport,44.65700149536133,-67.55919647216797
Oakwood Heritage Hospital Heliport,42.236433,-83.276421
Northern Pines Medical Center Heliport,47.5175001,-92.2302778
Portageville Community Heliport,36.4297981262207,-89.68009948730469
VA Medical Center Jackson Heliport,32.32973,-90.16273
Jones Landing Airport,45.815368,-111.152163
Brunswick Community Hospital Heliport,34.008099,-78.2911
Mc Kay Airport,41.7221984863,-98.3089981079
Stumpfield Heliport,42.92390060424805,-70.95140075683594
Paulus Hook Pier Heliport,40.7140007019043,-74.03150177001953
Baker Ranches Airport,39.0311,-114.088219
Oswego County At Pulaski Heliport,43.551998138427734,-76.09020233154297
Drill Field Pad Heliport,44.059531,-123.118951
Dorlon Airpark,41.28839874267578,-81.96260070800781
Hawk Haven Airport,35.8534,-97.567497
Peacock Ranch Airport,45.44150161743164,-117.35099792480469
PECO Mob. Heliport,39.9548,-75.178201
State Police Area Iii Heliport,40.30009841918945,-76.85800170898438
Mills Brothers Airport,40.142799377441406,-77.86190032958984
Vernonia Airfield,45.85150146484375,-123.24199676513672
Brandes Air Field,29.809099197387695,-96.26509857177734
Hilde-Griff Field,30.72209930419922,-97.79139709472656
Thurmond Glenn Field,35.556998,-89.552903
Dew Drop Airport,33.12929916381836,-97.35859680175781
Circle A Ranch Airport,32.128974,-97.404582
Oljato Airport,37.033626,-110.315778
Blanca Airport,37.41109848022461,-105.552001953125
Providence Airport,37.22420120239258,-78.4186019897461
Port of Highgate Springs Heliport,45.013301849365234,-73.08670043945312
Sacred Heart Medical Center Helistop,47.64820098876953,-117.41400146484375
Ames Private Airport,42.651100158691406,-88.74590301513672
Flat Creek Field,48.702222,-118.0475
Moore County Hospital District Heliport,35.863631,-101.970944
Johnson Memorial Airport,33.07929992675781,-91.54319763183594
Henning Municipal Airport,46.30379867553711,-95.43949890136719
Twisted Sisters Airport,60.540256,-150.813827
June Lake Airpark,61.627619,-149.575331
Brown Stagefield Army Heliport,31.388399124145508,-85.97239685058594
Bondair Airport,35.544498443603516,-92.18489837646484
Mercy Gilbert Medical Center Heliport,33.287759,-111.751454
Lucky Landing Marina and Seaplane Base,44.907001,-68.805
Sce Solar I Heliport,34.87080001831055,-116.83399963378906
Abc7-Tv Heliport,35.15719985961914,-118.28900146484375
Jecan Airport,37.38750076293945,-103.69100189208984
William P Gwinn Airport,26.90839958190918,-80.32890319824219
Grass Roots Airpark,28.641700744628906,-81.88500213623047
Morton Plant Hospital Heliport,27.953527,-82.806222
Smith Heliport,33.75339889526367,-84.16210174560547
Patoka Reservoir Landing Area Seaplane Base,38.43339920043945,-86.69110107421875
Rich Field,41.841400146484375,-91.83429718017578
Larkin Airport,43.46269989013672,-116.35900115966797
Humm Airport,41.5994987487793,-88.86990356445312
Ellis Fly-In Airport,39.282799,-87.303596
Sinele Strip,40.5463981628418,-91.27429962158203
Riverside Hospital Airlift Heliport,37.69580078125,-97.37249755859375
Falcon Heliport,37.525902,-83.344901
Panther Helicopters Inc Heliport,29.84606,-90.03216
Hammersmith Heliport,41.8736,-88.496901
Tembec Heliport,30.70789909362793,-91.32019805908203
The Barn Heliport,42.69060134887695,-71.60900115966797
Bayview Heliport,39.29140090942383,-76.54630279541016
Barker Heliport,44.415247,-70.844275
W A Foote Memorial Hospital Heliport,42.2510986328125,-84.39140319824219
Pike Field Airport,47.652185,-92.416692
Noahs Ark Airport,39.23059844970703,-94.80439758300781
Torgerson Airport,48.55830001831055,-112.10900115966797
Randall Airport,41.43199920654297,-74.3916015625
Tailwinds Airport,34.82749938964844,-78.9302978515625
Fitterer's Strip,46.7489013671875,-101.66899871826172
St Marys Hospital Heliport,40.68000030517578,-95.86170196533203
Cole Farm Airport,42.92839813232422,-70.97309875488281
Chemical Bank - New Jersey Na Heliport,39.950102,-74.999603
Silver Creek Airport,39.098333,-114.150277
Murphy Field,42.836797,-76.437614
Saint Elizabeth Medical Center Heliport,41.11479949951172,-80.65699768066406
Hal Joy Airfield,41.50979995727539,-80.59120178222656
Green Acres Airport,39.734798431396484,-84.3822021484375
Albert Lodge Heliport,36.54169845581055,-94.83360290527344
Hayden Mountain Airport,45.4650993347168,-123.08000183105469
Freefall Oz Airport,41.995792,-78.288152
Schiavoni Heliport,40.382733,-76.772533
Cherokee Island Castle Heliport,40.40230178833008,-79.92130279541016
Grawunder Field,29.9419002532959,-96.24610137939453
Beyer Farm Airport,37.583900451660156,-97.25309753417969
Glaser Field,30.90850067138672,-97.11689758300781
Ainsworth Airport,30.312700271606445,-95.02690124511719
Hunter STOLport,35.69729995727539,-86.95690155029297
Roscoe Mc Connico Airport,32.120701,-96.179101
6 Mile Airpark,30.860024,-100.201996
Diamond N Ranch Airport,30.057919,-95.812489
Mount Horeb Field,38.249000549316406,-78.85530090332031
N A Degerstrom Yard Heliport,47.68629837036133,-117.197998046875
Young Private Airport,45.66270065307617,-92.45020294189453
Western Airpark,46.92499923706055,-122.5530014038086
Campbell Field,33.322933,-97.045019
Herman Municipal Airport,45.83000183105469,-96.16059875488281
Pan Lake Strip Airport,61.6959639,-149.9549028
Tac X Stagefield Army Heliport,31.125200271606445,-85.9791030883789
Morrilton Airport,35.194339,-92.802473
John C Lincoln Hospital Heliport,33.56669998168945,-112.06900024414062
Blue Hill Airport,44.448001861572266,-68.5697021484375
West Side Hospital Heliport,35.138949,-119.451463
Richvale Airport,39.49769973754883,-121.77100372314453
Comanche Creek Airport,39.26359939575195,-104.427001953125
TNT Heliport,41.4529,-72.249603
Tackaberry Airport,43.06449890136719,-82.72380065917969
Ocean Reef Club Airport,25.325399398804,-80.274803161621
Flying G Ranch STOLport,30.417999,-83.283796
Southwest Florida Regional Medical Center Heliport,26.6054,-81.859497
Alcovy Airport,33.67499923706055,-83.76309967041016
Lake Monroe Seaplane Base,39.05870056152344,-86.44609832763672
Interstate Airport,42.274991,-113.301229
St Vincent Jennings Hospital Heliport,39.01060104370117,-85.64080047607422
Gray Airport,39.573699951171875,-85.91390228271484
Central City Municipal - Larry Reineke Field,41.1125984192,-98.0516967773
Heape Field,37.73419952392578,-96.93669891357422
Blue Lick Airport,38.08060073852539,-85.69329833984375
Air Oil Inc Nr 1 Heliport,29.937099,-90.183701
Louisiana State Police Troop F Heliport,32.51825,-91.989093
West Pond Heliport,41.91699981689453,-70.70950317382812
Baugher's Orchard Airport,39.608299255371094,-77.0519027709961
Westbrook Heliport,43.73830032348633,-70.33920288085938
Scott Airstrip,43.864200592041016,-85.0239028930664
Dairyview Airport,44.05500030517578,-95.90950012207031
Lake Sexton Airport,38.655553,-93.624458
Glasgow Industrial Airport,48.42110061645508,-106.52799987792969
Bermudian Valley Airpark,40.01679992675781,-77.00389862060547
Hawks Meadow Airport,34.83319854736328,-80.7511978149414
Diving Rock Seaplane Base,43.17559814453125,-72.06390380859375
Hackensack UMC Palisades Heliport,40.793666,-73.994863
Border Line Farm Airport,39.102239,-114.053472
Mmc Heliport,42.66640090942383,-74.76499938964844
Tennessee Gas Heliport,39.9373,-81.683503
Pleasant Valley Airport,34.633399963378906,-99.03369903564453
Bruce's Airport,45.42179870605469,-122.62000274658203
Folmar Airport,40.998889,-78.125278
Advanced Public Health of Isabela Heliport,18.489403,-67.026333
Churchill Airport,39.77280044555664,-99.36009979248047
Salaika Aviation Airport,29.240519,-95.344658
Cuddihy Field,27.721099853515625,-97.51280212402344
Corntassel Airport,35.568599700927734,-84.24109649658203
Cross-Country Estates Airport,30.625381,-97.571425
Pecks Heliport,33.183998107910156,-96.447998046875
E Northrop Grumman Airport,41.716667,-112.447222
Alpha Hotel Airport,36.81959915161133,-78.78309631347656
Meadow STOLport,44.447200775146484,-72.91470336914062
Multicare Deaconess Hospital Heliport,47.651637,-117.424477
Bartell Strip,42.965302,-88.391502
Stallions Airport,44.960084,-106.105925
Luecke Heliport,29.906488,-97.214397
Allen Ponderosa Heliport,32.542198181152344,-97.3917007446289
Hill City-Quadna Mountain Airport,46.955501556396484,-93.5969009399414
Fisher Airport,61.569639,-149.724439
Little Lagoon Seaplane Base,30.243717,-87.754678
Crittenden Regional Hospital Heliport,35.142046,-90.190212
Mesa Police Heliport,33.417669,-111.838835
Merrymeeting Field,44,-69.88710021972656
Pg & E Co. Placerville Svc Center Heliport,38.69490051269531,-120.8270034790039
Kistler Ranch Airport,37.85960006713867,-120.55400085449219
Tulare Motor Sports #1 Heliport,36.172031,-119.306181
Terra Firma Airport,38.73249816894531,-104.04100036621094
Seavair's Landing Seaplane Base,41.895999908447266,-73.09310150146484
City of Coalgate Airport,34.53179931640625,-96.23310089111328
Duda Airstrip,26.57979965209961,-81.48370361328125
Sunniland Ranch Airport,27.363100051879883,-80.77279663085938
J. H. Hendrie Farms Airport,27.08449935913086,-81.32869720458984
Salt Fork Lodge Heliport,40.11090087890625,-81.52619934082031
Sapelo Island Airport,31.425800323486328,-81.28589630126953
Symms Airport,43.56930160522461,-116.7770004272461
Parkview Lagrange Hospital Heliport,41.645085,-85.426386
Harms Airstrip,41.577,-89.793999
Winona Lake Seaplane Base,41.223056,-85.830556
Hemmer RLA Restricted Landing Area,37.977798461899994,-89.20290374759999
Alderson Airport,39.034698486328125,-97.58000183105469
Methodist Health Heliport,37.628414,-87.946994
Boss Airport,36.972599029541016,-84.6260986328125
Air Oil Inc Nr 2 Heliport,29.952999114990234,-90.18260192871094
Sauer Airport,41.07529830932617,-88.48919677734375
Aeleron Airport,30.40829,-92.033444
Wormid Airport,42.29399871826172,-71.49620056152344
St Joseph Hospital Heliport,39.388301849365234,-76.61000061035156
Lindbergh Airport,44.81420135498047,-70.34529876708984
Sparrow Hospital Heliport,42.73419952,-84.53659821
Christenson Point Seaplane Base,47.66939926147461,-93.05439758300781
Twin Oaks Airport,37.395599365234375,-94.28379821777344
Williams Field,34.66220093,-89.86830139
Matovich Airport,47.065679,-108.809624
Keller Brothers Airport,40.29180145263672,-76.32879638671875
Whiteheart Farm Airport,36.06760025024414,-80.4655990600586
Brecht Strip,47.32310104370117,-102.0979995727539
Laurel Municipal Airport,42.43170166015625,-97.07949829101562
Memorial Hospital Heliport,44.0612983704,-71.1358032227
St Barnabas Medical Center Heliport,40.76259994506836,-74.30400085449219
Bell Mountain Airport,35.217541,-82.426
Md1 Airport,41.368099212646484,-74.50559997558594
Kenley Airport,41.29169845581055,-80.5636978149414
Parks Airport,34.93149948120117,-95.25830078125
Broken B Airport,35.408087,-98.605477
Saxon Sycan Airport,42.839298248291016,-121.11699676513672
Pocono Raceway Heliport,41.05839920043945,-75.49960327148438
Thomson Heliport,40.0458984375,-76.28079986572266
Richmond Airport,41.489498,-71.620598
Douglas County Memorial Hospital Heliport,43.325923,-98.345152
Rancho Del Lago Heliport,29.97842,-98.258418
B J McCombs Sisterdale Airport,29.975331,-98.742451
PTC Airport,35.298914,-86.474357
Puesta Del Sol Airport,26.881331,-98.504885
LZ Tango Charlie Airport,30.308803,-99.022228
Cross Wind Airport,32.85789,-97.744303
Stevens-Crosby Airport,41.51570129394531,-115.86000061035156
Springwood Airstrip,37.55400085449219,-79.74980163574219
Manchester Laboratory Heliport,47.574299,-122.547997
Pierick Airport,43.04359817504883,-90.3551025390625
Knolle Ranch Airport,30.479253,-96.504031
Peterson Airport,29.10810089111328,-95.77749633789062
Sheldon Chalet Heliport,62.969888,-150.75375
West Beaver Airport,61.589361,-149.847333
Magnolia Hospital Heliport,33.27320098876953,-93.23989868164062
Stronghold Airport,31.924848,-110.040007
Mee Memorial Hospital Heliport,36.20554,-121.132503
Alta Sierra Airport,39.113800048828125,-121.05699920654297
Tulare Motor Sports #2 Heliport,36.182556,-119.313572
Cottonwood Field,38.055599212646484,-103.65299987792969
Placid Lakes Airport,27.2455997467041,-81.41310119628906
Cheryl-Lane Landings Airport,28.671100616455078,-82.0873031616211
Sunnybreeze Airport,27.055599212646484,-81.97059631347656
Sunbelt Strip,31.120995,-83.67063
International Falls Seaplane Base,48.60580062866211,-93.37079620361328
Skydive Iowa Airport,41.74580001831055,-92.4093017578125
Taylor Ranch Landing Area Airport,45.10390090942383,-114.8550033569336
Gibbons Field,38.44729995727539,-86.44499969482422
Silver Cross Hospital Heliport,41.536183,-88.052279
Gordon Airport,41.12089920043945,-85.42500305175781
Swedish American Heliport,42.26499938964844,-89.07430267333984
Coffman Airport,38.707000732421875,-95.13829803466797
Baptist Hospital East Heliport,38.23899841308594,-85.63939666748047
Era Helicopters Fourchon Helibase Heliport,29.126972,-90.206659
Pine Hill Airport,42.468101501464844,-88.74320220947266
West Feliciana Sheriff's Office Heliport,30.824399948120117,-91.38459777832031
Kallander Field,42.304298400878906,-71.50589752197266
Perrotti Skyranch Airfield,43.34080123901367,-70.85469818115234
Michigan National Guard Headquarters Heliport,42.708099365234375,-84.56079864501953
W Johnson Field,44.779998779296875,-95.6635971069336
Hogue Farm Airport,37.37839889526367,-93.36329650878906
Airhaven Airport,41.83259963989258,-73.8759994506836
William Irving Lewis Airport,35.32929992675781,-79.02999877929688
Summer Hill Farm Airport,41.33330154418945,-96.193603515625
Stonebridge Farm Helistop,40.65370178222656,-74.6865005493164
Dakota Air Ranch Airport,35.650122,-79.650311
Spring Lake Fire Department Heliport,41.92890167236328,-74.04889678955078
Ragtime Aerodrome,36.35449981689453,-95.86389923095703
Mid-Columbia Medical Center Heliport,45.587235,-121.163827
Eagle Field,40.82699966430664,-77.98809814453125
Hundley Residence Heliport,40.5620002746582,-75.1427001953125
Sullivan Lake State Airport,48.84090042114258,-117.28399658203125
Lazy G Bar Ranch Airport,33.282101,-97.497002
Running M Ranch Airport,32.26679992675781,-97.86699676513672
Univ of Tennessee Medical Center Heliport,35.94169998168945,-83.94400024414062
Pitcock Rosillos Mountain Ranch Airport,29.48240089416504,-103.16500091552734
Smokey Mountain Ranch Airport,30.737626,-102.02332
Alum Ridge STOLport,36.97650146484375,-80.493896484375
Augusta Medical Center Heliport,38.09080123901367,-78.98500061035156
South Capitol Street Heliport,38.868612,-77.008367
Holy Family Hospital Heliport,47.71039962768555,-117.40699768066406
Parkway Farm Strip,44.00360107421875,-91.30760192871094
Baptist Medical Center Heliport,29.433000564575195,-98.49220275878906
Wipline Seaplane Base,44.81660079956055,-93.0155029296875
Big Salmon Heliport,59.403055,-136.013611
Kalifornsky Meadows Airport,60.491537,-151.235253
Pilot Station Airport,61.934601,-162.899994
Scotts Airport,64.39214,-146.861823
Anderson Lake Airport,61.61690139770508,-149.32200622558594
Yentna Bend Strip,61.725556,-150.678611
Parker Lake Airport,62.0359001159668,-150.49400329589844
Young Creek Airport,61.355352,-142.731832
Victory Airport,61.80108,-147.945156
Bradley Lake Hydroelectric Project Airstrip,59.776005,-150.963285
Pollux Heliport,64.895835,-147.497501
Falcon Lake Strip,61.33259963989258,-150.0590057373047
Huntsville Field,34.68840026855469,-86.58889770507812
Resort Airport,30.443899154663086,-87.65689849853516
Clay County Hospital Heliport,33.275001525878906,-85.83329772949219
Hospital Pad Heliport,31.430599212646484,-86.94029998779297
Dekalb Regional Medical Center Heliport,34.442141,-85.755793
Flomaton Airport,31.03219985961914,-87.25279998779297
D.W. Mcmillian Memorial Hospital Heliport,31.127199172973633,-87.07330322265625
Gadsden Regl Medical Center Heliport,34.00830078125,-85.96530151367188
Brookwood Medical Center Heliport,33.46390151977539,-86.77310180664062
Wilson Creek Airport,34.849998474121094,-87.63249969482422
Northwest Medical Center Springdale Heliport,36.181509,-94.137252
Hooterville South Airport,35.0947,-93.202003
Mission Field-Marotti Memorial Airport,35.26679992675781,-90.35009765625
Taylor's Air Strip,35.898998,-93.261001
Ozarks Community Hospital Heliport,36.40929,-94.46005
Rgnl Medical Center Heliport,35.83620071411133,-90.70179748535156
Ami National Park Medical Center Heliport,34.48149871826172,-93.03099822998047
Yancopin Airport,33.9501,-91.181198
Howard Memorial Hospital Heliport,33.95009994506836,-93.85209655761719
Eureka Springs Hospital Heliport,36.40010070800781,-93.74349975585938
Arizona Heart Hospital Heliport,33.481187,-112.03976
Taylor Field,32.302114,-111.32412
Western Sky Airport,33.778166,-113.640625
Flying Bucket Ranch Airport,32.9823,-112.287003
Castle Well Airport,33.865944,-112.603265
St Joseph's Hospital Heliport,33.482963,-112.079301
Sunstate Heliport,33.445318,-111.964567
Brewer Airport,44.76369857788086,-68.7677993774414
Warren-Sugarbush Airport,44.1166992188,-72.8271026611
Triple R Airport,39.48780059814453,-94.78050231933594
Hinckley Airport,41.77090072631836,-88.70339965820312
Canadian Lakes Airport,43.57640075683594,-85.28060150146484
Grandpas' Farm Mendota Airport,41.521999,-89.132599
Cushing Field Ltd Airport,41.519500732421875,-88.60559844970703
Coach & Paddock Heliport,40.63819885253906,-74.97570037841797
Drew Medical Center Heliport,33.923302,-118.241997
Northside Airpark,34.9883003235,-120.458000183
VA Greater Los Angeles Health Care Center Heliport,34.049778,-118.456257
Crawford Airport,34.587501525878906,-120.01300048828125
Shepherd Farm Airport,34.6222,-120.065002
Hoffman Private Airport,33.14310073852539,-116.74500274658203
Emory Ranch Airport,32.7494444,-116.0161111
Boeing Seal Beach (Rooftop) Heliport,33.756779,-118.0854
Ward Ranch Airport,33.413347,-116.843255
Blech Ranch Airport,35.592797,-120.338058
Delta County Memorial Hospital Heliport,38.745155,-108.047973
Colorado Plains Medical Center Heliport,40.2610917,-103.7963389
Foxx Valley Airport,38.652500152600005,-104.23400116
Branch's Heliport,40.3479995728,-104.527999878
Kauffman Heliport,40.1463012695,-104.887001038
Pi√±on Canyon Airport,37.490501,-104.143997
Exempla Good Samaritan Heliport,39.971698761,-105.084999084
Fox Hole Airport,40.004699707,-105.071998596
Prowers Medical Center Heliport,38.0710983276,-102.60900116
Swedish S.W. Medical Heliport,39.603099823,-105.091003418
Yosemite Hidden Lake Ranch Airport,37.11800003049999,-119.913002014
Krey Field Airport,34.5694007874,-117.555999756
Parking Lot Heliport,32.593898773199996,-117.084999084
John Nichols Field Airport,32.633457,-116.890565
Glen Fed Heliport,34.157179,-118.254637
The Atrium Heliport,33.6706008911,-117.858001709
Bohunk's Airpark,34.694584,-118.277106
Good Samaritan Hospital Heliport,34.054901,-118.264967
Tera Ultralightport,35.591765,-117.627754
Sce San Jacinto Valley Service Center Heliport,33.741100311299995,-117.151000977
Fiorini Ranch Airport,37.452178,-120.764758
Sutter Butte Dusters Airport,39.228622,-121.688265
Longmont United Hospital Heliport,40.178901672399995,-105.125999451
Dave's Airport,40.0332984924,-105.124000549
Crested Butte Airpark,38.851918,-106.928341
Greggs Nr 1 Airport,39.8894,-104.544997
Geo-Seis Helicopters Heliport,40.5899009705,-105.04599762
Chenoweth Airport,39.830995,-103.592463
Flying M & M Ranch Airport,38.2193984985,-108.212997437
Century Helicopters Heliport,40.5854988098,-105.040000916
Cartwheel Airport,40.2083015442,-105.013000488
Van Treese Airport,37.6582984924,-106.033996582
Sharon Hospital Heliport,41.881232,-73.480699
Bristol-Myers Squibb Company Heliport,41.484798431396484,-72.7562026977539
Windham Hospital Heliport,41.71699905395508,-72.22589874267578
N B G H Heliport,41.661598205566406,-72.78790283203125
Burke Heliport,41.50619888305664,-72.9397964477539
St Francis Hospital Heliport,41.77450180053711,-72.6989974975586
Middletown Heliport,41.5968017578125,-72.70449829101562
Bridgeport Hospital Heliport,41.188408,-73.1667
Danbury Hospital Heliport,41.405297,-73.445165
Hartford Hospital Heliport,41.75450134277344,-72.67870330810547
Wilber Municipal Airport,40.474998474121094,-96.98780059814453
Ada Airport,40.79059982299805,-83.8291015625
Air Park North,44.958035,-84.958859
Corydon Airport,40.75450134277344,-93.24130249023438
Doral Resort & Country Club Heliport,25.81734,-80.340416
Ott's Landing Airport,27.3039,-81.880403
Doctors Memorial Hospital #2 Heliport,30.119753,-83.592732
Brighton Helipad,27.075744,-81.071125
Briley Farm Seaplane Base,28.5727778,-81.6286111
Immokalee Helipad,26.39841,-81.414667
The 2A Ranch Airport,29.26757,-81.223331
Panhandle Helicopter LLC Heliport,30.213844,-85.871916
Hard Rock Stadium Heliport,25.960016,-80.237001
Dugger Field,30.496400833129883,-86.09380340576172
Cloverleaf Farms II Inc. Heliport,29.361401,-82.208199
Breezy Knoll Airport,30.820199966430664,-86.34439849853516
Fulton Seaplane Base,27.907499313354492,-80.48639678955078
Joy Farms Airport,30.652099609375,-86.1093978881836
Harper's Fly-In Ranch Airport,26.730600357055664,-81.16390228271484
Thompson Airfield,29.983299,-82.835602
Alligator Drink Seaplane Base,28.787799835205078,-81.16419982910156
Old Town Ems Heliport,29.602800369262695,-82.98169708251953
Jackson Heliport,30.704999923706055,-85.37830352783203
Lake Conway South Seaplane Base,28.458599090576172,-81.34970092773438
Stanchester Airport,27.806199,-82.141365
Wcpx Tv-6 Heliport,28.610300064086914,-81.41940307617188
Gary Gale Seaplane Base,30.193899154663086,-81.68190002441406
Mc Daniel Ranch Inc. Airport,26.3938999176,-81.0231018066
North Buffalo Suburban Airport,43.103199,-78.7033
Grand Marais/Cook County Seaplane Base,47.8263,-90.3835
Halls Flying Ranch Airport,33.356201171875,-84.36710357666016
Mustang Field,34.477901458740234,-82.89710235595703
"Airnautique, Inc. Airport",34.377899169921875,-82.9457015991211
Ayresouth Airport,33.77009963989258,-85.06079864501953
Paradise Falls Airport,33.812901,-83.505699
Big Canoe Heliport,34.45479965209961,-84.28910064697266
Sunset Strip,33.7333984375,-83.81880187988281
Hickory Level Airfield,33.683399,-84.999901
Paso Fino Farm Airport,30.887100219726562,-83.41600036621094
Roberta Industrial Park Airport,32.71390151977539,-84.02749633789062
Pinewood Airport,33.782100677490234,-84.80079650878906
Crystal Lake Airpark,31.66550064086914,-83.44709777832031
Lookout Mountain Airport,34.904701232910156,-85.45970153808594
Pecan Patch Airstrip,33.33140182495117,-84.2667007446289
Mountain Airpark,34.561798095703125,-83.7135009765625
Carpenter Airport,33.520301818847656,-82.37249755859375
Pegasus Ranch Airport,32.69390106201172,-81.79859924316406
Kahoka Municipal Airport,40.4216,-91.706299
Brazil Clay County Airport,39.47669982910156,-87.09970092773438
Knoxville Area Community Hospital Heliport,41.316898345947266,-93.09600067138672
St Anthony Regional Hospital Heliport,42.05830001831055,-94.86830139160156
Audubon County Memorial Hospital Heliport,41.71549987792969,-94.9385986328125
Hawkeye Airport,42.43470001220703,-92.3280029296875
Sharar Field,41.03340148925781,-91.05010223388672
Moore Private Airport,40.87220001220703,-93.26270294189453
Rinehart Airport,41.659698486328125,-92.28990173339844
Cromwell Heliport,41.03889846801758,-94.46690368652344
Hannen Airport,42.22800064086914,-91.7509994506836
Army Reserve Heliport,40.83340072631836,-91.30010223388672
South Fork Ranch Airport,43.60639953613281,-115.10700225830078
Ziggy's Airport,42.64120101928711,-114.6050033569336
Flying Joseph Ranch Airport,44.442901611299995,-113.773002625
Coyote Run Airport,43.075801849365234,-115.6729965209961
Black Butte Ranch Airport,43.047698974609375,-114.47000122070312
Ez Lope Ranch Airport,43.0531005859375,-116.46199798583984
Steele Memorial Heliport,45.173791,-113.891423
Z X Ranch Airport,43.230308,-116.763192
Pinnacle Airport,45.775705,-116.180463
Corral Creek Airport,46.785278,-116.471131
Chuck's Airport,40.2599983215332,-85.25330352783203
Unsicker Airport,40.4281005859375,-86.1532974243164
Creighton Airport,41.457298278808594,-86.12439727783203
Miller Strip,40.6278,-86.037804
Marshall Field,40.65950012207031,-86.8572006225586
Kropf Airport,41.64310073852539,-85.82969665527344
Frost Field,39.79560089111328,-85.78610229492188
Sutton's Field,41.324798583984375,-87.47589874267578
Winters Airport,39.53419876098633,-86.57720184326172
Hamilton Memorial Hospital Heliport,38.086700439453125,-88.53890228271484
Loyola University Medical Center Heliport,41.86090087890625,-87.8364028930664
Griffin Airport,38.803056,-88.997778
Flying B Ranch Airport,40.15700149536133,-87.67449951171875
Advocate Good Samaritan Hospital Heliport,41.818743,-88.007677
OSF St Luke Medical Center Heliport,41.221865,-89.947788
Kishwaukee Community Hospital Heliport,41.9631004333,-88.717300415
Walter Airport,41.872501373291016,-88.72370147705078
Jack W. Watson Airport,41.854801177978516,-88.78730010986328
Snider Field,38.5,-87.59590148925781
The Lazy K Airport,40.82780075073242,-85.08609771728516
Graves Landing Strip,41.11669921875,-86.66670227050781
Air Park Field,41.12779998779297,-84.94719696044922
Byrne Field,38.32899856567383,-86.03359985351562
Roto-Whirl/Holiday Heliport,39.922501,-86.226097
Roto-Whirl/Vantage Heliport,39.837299,-86.118597
Parrish Airport,37.993099212646484,-87.95140075683594
Trinity Medical Center West Heliport,41.48109817504883,-90.57140350341797
Evanston/Glenbrook Heliport,42.093101501464844,-87.85260009765625
Cady Aerial RLA Restricted Landing Area,41.660800933800004,-89.69360351559999
Dawson Farms Airport,39.76250076293945,-88.67150115966797
Dongola Heliport,37.3656005859375,-89.1635971069336
Blessing Hospital At 11th St Heliport,39.936012,-91.398659
Bernardin Heliport,41.70840072631836,-89.2029037475586
Abbeville Municipal Airport,31.600093,-85.238353
Flying Ten Airport,29.618000030517578,-82.50869750976562
Fleming County Hospital Heliport,38.422373,-83.752604
Dobie's Airport,36.178496,-95.580468
J V Ranch Airport,38.63330078125,-95.92530059814453
Kellie Mann Airfield,38.560001,-95.309097
Camp Chippewa Airport,38.56669998168945,-95.36689758300781
Norris Airport,38.807239,-95.370056
Kendrigan Airport,37.45220184326172,-97.31780242919922
Mono Aircraft Airport,37.69279861450195,-97.88639831542969
Pearce Field,37.38249969482422,-95.37470245361328
Lmn 120 Airport,37.515899658203125,-96.9197998046875
Owen Air Park,38.622798919677734,-84.77890014648438
Arnemann Farms Airport,36.76559829711914,-86.61830139160156
Mgt Station 2105 Heliport,37.50559997558594,-86.8375015258789
Tennessee Gas Heliport,38.561404,-83.952795
Cambron Field,37.56439971923828,-87.08190155029297
Boyce Wafer Farm Airport,36.812346,-86.377427
Tennessee Gas Heliport,38.268299,-82.577499
Clinton-Hickman County Airport,36.63610076904297,-88.99859619140625
Sky Airport,37.117199,-83.736099
Pine Mountain Aero Heliport,37.113602,-82.803596
Lida Junction Airport,37.485801696777344,-117.19100189208984
Goldfield Airport,37.722751,-117.236368
Winn Parish Medical Center Heliport,31.923200607299805,-92.64569854736328
West Hackberry Heliport,30.003515,-93.401005
Double H Ranch Airport,30.229400634765625,-90.97339630126953
Don Babin-Private Airport,30.278,-90.963203
Belcher Airpatch Airport,32.749298095703125,-93.87349700927734
North Caddo Medical Center Heliport,32.86410140991211,-93.98899841308594
Conoco Inc Heliport,29.258868,-89.964541
Freeport Sulphur Heliport,29.2586,-89.959198
Exxon Heliport,29.254738,-89.96732
Jackson Parish Hospital Heliport,32.25170135498047,-92.71279907226562
Rebel Field,30.586299896240234,-90.86150360107422
Kaufield Airport,42.26470184326172,-88.7300033569336
Jerseyville Aviation Inc Airport,39.094200134277344,-90.31340026855469
Murk's Strip,40.738899231,-90.38069915770001
Koenig Airport,39.05500030517578,-90.34210205078125
Flaherty Field,41.4192008972168,-89.12310028076172
Busboom RLA Restricted Landing Area,40.1100006104,-88.07839965820001
Gord Airport,41.69839859008789,-88.60759735107422
Valley West Hospital Heliport,41.657994,-88.621297
Savanna Army Depot Helipad,42.183399,-90.255698
Theriot Field,29.74970054626465,-90.73580169677734
Evergreen Fourchon Heliport,29.116437,-90.201273
Evergreen Venice Heliport,29.29669952392578,-89.37439727783203
Buller's Airstrip,30.808701,-92.188003
Trahan Ultralightport,30.303775,-92.130547
Dufour Airport,30.787700653076172,-92.05039978027344
Morgan Field,30.61280059814453,-91.48419952392578
Lonesome Dove Airfield,30.28580093383789,-92.94129943847656
Huenefeld Airport,32.513603,-91.98657
Massachusetts General Hospital Heliport,42.363656,-71.069142
Healthalliance Hospital-Leominster Heliport,42.54090118408203,-71.76280212402344
Reh Heliport,41.786224,-71.231437
Boston Medical Center Hospital Heliport,42.333804,-71.071352
Brockton Usar Center Heliport,42.05590057373047,-71.05590057373047
Wbz Heliport,42.3651008605957,-71.13259887695312
Textron/Everett Heliport,42.404496,-71.070602
Lleia Kyle O'Meara Heliport,42.50310134887695,-71.90840148925781
Baltimore Washington Medical Center Heliport,39.1375999451,-76.623298645
Taylor Field,39.18730163574219,-75.7927017211914
Squier Landing Airport,38.287781,-76.867575
The Johns Hopkins Hospital Heliport,39.297298431396484,-76.59329986572266
Pond View Private Airport,39.26679992675781,-76.18720245361328
Greater Laurel Beltsville Hospital Heliport,39.08760070800781,-76.88159942626953
Walters Airport,39.38119888305664,-77.10579681396484
The Aspen Institute Heliport,38.9093017578125,-76.11969757080078
Security Ford Heliport,39.24589920043945,-76.67610168457031
Calvert Memorial Hospital Heliport,38.56100082397461,-76.59660339355469
Peasley Field,44.742469,-68.474403
Sebago Lake Basin Seaplane Base,43.839716,-70.462016
Sumner Heliport,42.970001,-85.6659
Sugar Springs Airpark,44.140301,-84.4375
Stier Airstrip,44.522202,-83.683296
Kelleys Airport,44.633399963378906,-84.4833984375
Lesterson-Dempsey Airstrip,46.270198,-87.386496
Young's Airport,46.38750076293945,-85.18399810791016
Four Star Heliport,42.042987,-83.35895
Twin Lakes Airport,44.894115,-84.297818
Henry Ford Hospital Heliport,42.36750030517578,-83.08439636230469
Winner's Landing Seaplane Base,44.79690170288086,-92.98410034179688
Brinkman Airport,44.2625007629,-94.06970214840001
Grindstone Lake Seaplane Base,46.13330078125,-93.00299835205078
Lower Hay Lake Seaplane Base,46.677799224853516,-94.2925033569336
Paul's Seaplane Base,46.47719955444336,-94.3031005859375
Pankratz Airport,44.30720138549805,-94.91690063476562
Matson Field,43.662200927734375,-92.404296875
Ely Bloomenson Community Hospital Heliport,47.89910125732422,-91.87300109863281
Keller Airport,45.135799,-92.859398
Triple H Heliport,45.31330108642578,-93.71759796142578
Ferros Ranch-Aero Airport,38.410301208496094,-93.8501968383789
Flying G Airport,38.544498443603516,-94.0947036743164
Short-N-Ruff Airport,37.78670120239258,-90.78009796142578
Arvin Ranch Airport,38.4403,-94.5933
Bert Walter Berkowitz Heliport,39.08530044555664,-94.57379913330078
Joe D Lewis Airport,40.133399963378906,-92.1001968383789
Hall Airport,40.115157,-92.272183
St Joseph Hospital West Heliport,38.80329895019531,-90.77629852294922
Sloan's Airport,39.14059829711914,-90.73680114746094
Emerson Heliport,38.72949981689453,-90.27839660644531
Topton Air Estates Airport,32.474998474121094,-88.61669921875
Franklin Field,31.425199508666992,-90.90290069580078
Morgan Field,31.541799545288086,-89.3917007446289
Baptist Memorial Hospital-North Ms Heliport,34.347801208496094,-89.51899719238281
Sheriff's Courthouse Heliport,30.375999450683594,-89.08619689941406
Lewis Air Service Airport,33.39179992675781,-90.91680145263672
Levert Heliport,30.301300048828125,-89.2344970703125
Hale Field,34.34260177612305,-89.14309692382812
Catfish Point Airport,33.69929885864258,-91.16510009765625
Shenandoah Valley Farms Airport,33.80070114135742,-89.02729797363281
Williams Field,47.497501373291016,-112.39099884033203
Big Sandy Medical Center Heliport,48.1796989440918,-110.10900115966797
Stock Farm Heliport,46.25080108642578,-114.06700134277344
Kimp Airport,46.27859878540039,-114.14099884033203
Cottonwood Airport,45.63420104980469,-108.8489990234375
Hanson Airport,48.04059982299805,-114.67900085449219
Pinehurst Ranch Airport,47.66080093383789,-115.40399932861328
Glacier Heli Tours Heliport,48.486698150634766,-113.99800109863281
Lone Hawk Airport,48.483299255371094,-114.49299621582031
Eagle Field,37.23469924926758,-91.09359741210938
Sunderland Airport,37.246700286865234,-94.17389678955078
Christian Hospital Northeast Heliport,38.77692,-90.24151
Hannibal Regional Hospital Heliport,39.7111,-91.451934
Slaughter Airport,39.6161003112793,-92.86689758300781
Holden Heliport,38.71969985961914,-93.99440002441406
Bradbury-Rolf Memorial Heliport,39.073299407958984,-93.73590087890625
Lambs Field,38.875,-94.13970184326172
Prince STOLport,37.43870162963867,-89.75900268554688
RPM Airport,37.337894,-93.164084
Kenyon Heliport,44.333900451660156,-92.94329833984375
Bozeman Deaconess Hospital Heliport,45.66999816894531,-111.01899719238281
Roosterville Airport,39.291099548339844,-94.44219970703125
Chandelle Airport,39.202301,-75.485497
Deldot Helistop,39.149600982666016,-75.50489807128906
Albanna Aviation Airport,39.012602,-75.533501
Goerger Airport,46.24549865722656,-97.03759765625
Sorlie Airport,48.0010986328125,-99.56289672851562
Boyd's Turf Airport,46.75,-103.8010025024414
Wayne Memorial Hospital Inc. Heliport,35.398799896240234,-77.94969940185547
Bearwallow Farm Airport,35.4571,-82.375397
Moore Regional Hospital Heliport,35.204973,-79.458234
Washington County Hospital Heliport,35.87519836425781,-76.69969940185547
Wake Medical Center Heliport,35.786800384521484,-78.58580017089844
Nash General Hospital Heliport,35.91889953613281,-77.78919982910156
Our Community Hospital Heliport,36.13130187988281,-77.41889953613281
Lindsay Airport,36.36481,-79.99614
Flying S Ranch Airport,35.755699,-80.735298
Maria Parham Health DLP Affiliate Heliport,36.3307,-78.449699
Gilbertson Field,47.92919921875,-99.40039825439453
Schumacher Strip,46.05500030517578,-99.91709899902344
Saville Private Airport,46.465301513671875,-100.1050033569336
Merrihew Airport,41.849998474121094,-101.94999694824219
Runner Landing Area Airport,42.40719985961914,-101.93199920654297
Merry Airport,41.8666,-101.917
Syracuse Hospital Heliport,40.667198181152344,-96.1864013671875
Franklin County Memorial Hospital Heliport,40.097198486328125,-98.95040130615234
Newman Airport,41.02109909057617,-102.01799774169922
Frager Field,40.43330001831055,-98.07060241699219
Leinsing Heliport,43.151831,-70.846902
Atlantic City Medical Center Heliport,39.3589702498,-74.4346717
Berkeley Township Police Heliport,39.90729904174805,-74.23490142822266
Ballymere Heliport,40.752899169921875,-74.43990325927734
Mount Holly Heliport,39.966800689697266,-74.79959869384766
Weichert Headquarters Heliport,40.94070053100586,-74.46150207519531
Fla-Net Airport,40.88589859008789,-74.70570373535156
Dix Field,39.31679916381836,-74.63289642333984
Essex Generating Station Heliport,40.737818,-74.118655
Port Newark Helistop,40.702301025390625,-74.15070343017578
Jersey Tpke New Brunswick Helistop,40.477298736572266,-74.40789794921875
Berdick Field,42.33399963378906,-78.79090118408203
Spring Brook Airport,43.361698150634766,-76.22019958496094
Westwind Farm Airport,42.9833984375,-74.01619720458984
Seven Gullies Airport,42.695899963378906,-77.79219818115234
Nassau University Medical Center Heliport,40.726482,-73.552773
Mid-Hudson Helicopter Service Heliport,41.606201,-73.827599
Lapeer Flyer Airport,42.43840026855469,-76.08879852294922
King Street Heliport,41.10279,-73.725087
Rocky Reef Farm Airport,41.920898,-73.670403
Lakeview Airport,43.009449,-75.826006
Columbus Airport,31.823898,-107.629924
Negrito Airstrip,33.527901,-108.541001
Summerlin Medical Center Heliport,36.193599700927734,-115.3010025024414
Bennetts Airport,43.692973,-73.978013
Russell Field,43.139198303222656,-73.6531982421875
Amar Heliport,41.231009,-74.047353
Kermizian Airport,43.31399917602539,-74.93209838867188
Bridgeview Heliport,41.982698,-73.963206
State Police Troop D Heliport,43.07657,-75.64873
New York State Police Heliport,42.92839813232422,-76.6155014038086
Murphys Landing Strip,43.026623,-74.177055
Wenskoski Field,42.99729919433594,-74.24539947509766
San Luis Reservoir Seaplane Base,37.05830001831055,-121.1259994506836
Corning Municipal Airport,39.943599700927734,-122.1709976196289
Ward Field,41.845699310302734,-123.98500061035156
"Cleveland Clinic, Medina Hospital Heliport",41.137029,-81.836745
Cirino Heliport,41.44390106201172,-81.32759857177734
Jenkins Field,39.970604,-83.911598
Hamilton County Sheriff's Patrol Heliport,39.27920150756836,-84.564697265625
Upper Valley Medical Center Heliport,40.085621,-84.228562
Fry Field,39.60060119628906,-84.01969909667969
Apple Airport,40.152721,-84.173355
Fry Airport,40.18840026855469,-84.256103515625
Parknavy Airport,40.0717,-83.229897
Foltz Heliport,40.73590087890625,-81.2468032836914
Autolite Heliport,41.179199,-83.415199
Unger Field,39.359798431396484,-83.4177017211914
Galloway Airport,41.38209915161133,-82.71610260009766
Salt Box Airport,41.324265,-81.159309
Victor's Landing Airport,41.83810043334961,-80.6436996459961
Hidden Quarry Airport,38.894500732421875,-83.1135025024414
Edmond Airport,35.683399,-97.433601
Mckey Airport,34.65700149536133,-97.40170288085938
Parkview Hospital Heliport,35.5298,-97.983902
McKinley Ranch Airport,35.614465,-98.534403
Rock Creek Farm Airport,34.66059875488281,-96.25360107421875
Chappell Airport,35.88890075683594,-97.40029907226562
Ellis/Harvey Airport,35.801700592041016,-97.38610076904297
Shattuck Hospital Heliport,36.25,-99.87539672851562
Cade's Airport,36.2925,-97.593102
Crystal Airport,36.213401794433594,-96.63700103759766
Providence Hospital Heliport,42.3386993408,-122.861999512
Hendershots Heliport,42.133201599121094,-123.45099639892578
Long Ranch Airport,42.01900100708008,-121.7040023803711
Round Butte Heliport,44.61650085449219,-121.26799774169922
East Oregon Cattle Company Airport,42.505557,-122.863228
Rome Service Airport,42.83399963378906,-117.62899780273438
Marr Field,44.854000091552734,-123.26399993896484
Sutton on Rogue Airport,42.484798431396484,-122.86599731445312
Hanel Field,45.59260177612305,-121.54900360107422
Valley Forge Bicentennial Heliport,40.121201,-75.405998
Van Pak Airport,39.83219909667969,-99.5687026977539
Shoestring Aviation Airfield,39.795243,-76.647678
Philadelphia Gliderport,40.331227,-75.248125
Phoenix Technologies Heliport,40.11819839477539,-75.40129852294922
Haunstein Ultralightport,40.31679916379999,-77.1247024536
Robbins Farm Airport,41.747319,-76.760624
Ecko Field,40.23759841918945,-76.72470092773438
Fisher Airport,41.49449920654297,-79.83090209960938
Hostetler Airport,40.63090133666992,-77.85030364990234
Linvill Airport,39.884801,-75.414902
Geisinger Community Medical Center NAP Heliport,41.399964,-75.646634
Carson Heliport,40.33340072631836,-75.21630096435547
Fletcher Airport,41.443599700927734,-80.15390014648438
Pete's Water Landing Seaplane Base,40.69940185546875,-79.618896484375
Flying Acres Airport,41.07310104370117,-80.07029724121094
Wyeth-Ayerst Nr Heliport,40.15869903564453,-75.4634017944336
Kitner Airport,40.4128990173,-77.24140167239999
Nichols Airport,41.77920150756836,-79.59839630126953
Memmi Airport,40.16899871826172,-77.99250030517578
Drillmore Acres Airport,40.128299713134766,-77.63140106201172
Shriver Airport,41.61669921875,-79.68309783935547
Paul Personal Use Airport,41.71950149536133,-79.67780303955078
Frederick Airpark,41.37089920043945,-79.3416976928711
Mc Crory Stores Heliport,39.981498718299996,-76.67140197750001
Marian Heliport,40.989498138427734,-75.75129699707031
Carsonville Airport,40.49039840698242,-76.7666015625
Old Orchard Airport,41.008399963378906,-78.56089782714844
Used Parts Heliport,40.87929916381836,-75.19270324707031
Herbst Heliport,39.949501037597656,-76.55329895019531
Harman Airport,40.522300720214844,-76.84549713134766
Bayfront Garage Heliport,42.132598876953125,-80.08619689941406
Jefferson Health Bucks County Campus Heliport,40.182734,-74.868028
Sonoma Valley Airport,38.2234992980957,-122.44999694824219
Selma Airport,36.581600189208984,-119.65799713134766
Shingletown Airport,40.522099,-121.818001
Sonoma Skypark Airport,38.2577018737793,-122.43399810791016
Lincoln Municipal Airport,38.403900146484375,-93.33300018310547
The Red River Airport,31.990699768066406,-93.30740356445312
Plainville Airpark,39.1945,-99.303398
Meadow Creek USFS Airport,47.847956,-113.416758
Stockton Municipal Airport,39.377201,-99.295097
Nez Perce Municipal Airport,46.23740005493164,-116.24299621582031
Lenling Airport,45.42499923706055,-100.89199829101562
Lodi Airport,42.972198486328125,-96.9802017211914
Prairie Lakes West Heliport,44.91109848022461,-97.11949920654297
Bledsoe Ranch Airport,45.26940155029297,-103.21700286865234
Brookview Manor Heliport,44.308101654052734,-96.76470184326172
The Fort Heliport,43.806400299072266,-103.63700103759766
Oasis Ranch Airport,44.28889846801758,-101.82599639892578
Porch Ranch Airport,43.52439880371094,-101.73400115966797
Juhnke Airport,43.782798767089844,-100.29299926757812
Crazy Horse Heliport,43.82500076293945,-103.63600158691406
Ira Biffle Airfield,37.313901,-89.997299
Kittyhawk Airport,33.126202,-96.683601
HCA Houston Healthcare Mainland Heliport,29.39501,-94.986355
Buddy Harmel Airport,34.219501,-101.980003
Smith Farms Airport,34.213702,-101.923342
Tate Ranch Airport,30.30430030822754,-102.13800048828125
Erco Field,32.49789810180664,-96.27050018310547
Metro Heli-Pad Heliport,29.614700317382812,-95.35489654541016
Arco Ingleside Shorebase Heliport,27.847799,-97.223
Alta Vista Ranch Airport,30.153167,-103.89978
Womack Plantation Airport,33.848701,-95.407204
Houston Oil & Minerals Port Bolivar Nr 2 Heliport,29.39109992980957,-94.76409912109375
Robertson Ranch Airport,29.69300079345703,-101.16200256347656
Christus Spohn Hospital Memorial Heliport,27.780069,-97.414811
Bell Helicopter Hurst Heliport,32.80009841918945,-97.16699981689453
Buzz Field,33.931752,-100.845681
Hilltop Lakes Airport,31.08099937438965,-96.21520233154297
Santa Maria Ranch Airport,27.433799743652344,-99.18589782714844
Gorman Airport,32.20429992675781,-98.66560363769531
LBJ Ranch Airport,30.251800537100003,-98.62249755859999
Texas World Speedway Helistop Nr 1 Heliport,30.54050064086914,-96.22250366210938
Texas World Speedway Helistop Nr 2 Heliport,30.539600372314453,-96.2260971069336
R & S Buzzard Airport,35.676700592041016,-86.89669799804688
Tims Ford Seaplane Base,35.2223014831543,-86.22000122070312
Village Airport,35.65589904785156,-84.18550109863281
Park West Heliport,35.917598724365234,-84.1001968383789
Physicians Medical Regional Center Heliport,35.991209,-83.927278
Mc Donald Airport,35.867401123,-86.4978027344
Riner Farm Airport,36.18339920043945,-84.0990982055664
Horne Properties Heliport,35.92359924316406,-84.09110260009766
Erlanger Medical Center Heliport,35.049198150634766,-85.29049682617188
East Tennessee Children's Hospital Heliport,35.956199645996094,-83.93820190429688
Flower Mound Airport,33.0229,-97.122498
Dooley Airport,33.09039,-97.267851
Ultralight International Ultralightport,32.9487,-97.328903
Houston Heliport,29.819259,-95.663143
Ullrich Airport,30.091899871826172,-96.79499816894531
Lake Bay Gall Airport,30.4419002532959,-95.1863021850586
Harris County Courthouse Heliport,29.716100692749023,-95.47689819335938
Flying U Airport,32.834578,-98.125677
Flying 'K' Ranch Ultralightport,26.150400161743164,-97.88359832763672
Jim Roach Field,30.015499,-97.737197
Dynasty Heliport,14.960012,145.631075
Nassau Bay Airport,32.41960144042969,-97.71279907226562
Pecan Plantation Airport,32.354000091552734,-97.67639923095703
Heliport-Facility 5a Heliport,32.76259994506836,-97.05860137939453
UT Health East Texas Carthage Hospital Heliport,32.166429,-94.346098
Aerospatiale Helicopter Corp Heliport,32.711700439453125,-97.0271987915039
Shiloh Heliport,33.023382,-97.120589
Elm Creek Airpark,29.505199432373047,-97.99690246582031
Lazy K Acres Airport,32.950102,-97.150297
Jacobia Field,33.180401,-96.043297
Card Aerodrome,33.250099182128906,-96.11689758300781
Landmark US Forest Service Airport,44.6423988342,-115.532997131
Warm Springs Creek Airport,44.1421012878418,-115.31400299072266
Copper Basin Airport,43.80179977416992,-113.83100128173828
Mahoney Creek US Forest Service Airport,44.744598,-114.920998
Hollow Top Airport,43.32490158081055,-113.58799743652344
May Airport,44.610198974609375,-113.89600372314453
Lee Williams Memorial Airport,44.46160125732422,-116.75800323486328
Mostly Harmless Heliport,37.965401,-77.777496
Johnson Fox Field,37.23350143432617,-79.58529663085938
Riverwood Airport,37.79650115966797,-79.7667007446289
Hunt Airport,37.69879913330078,-77.09529876708984
Worley Field,36.95009994506836,-79.87950134277344
Coffman Field,37.6941443722,-77.66089439390001
Mc Guire Va Medical Center Pad Heliport,37.49599838259999,-77.46219635010002
Flatrock Air Strip,37.52320098876953,-77.81939697265625
Jayarz Airport,37.28580093383789,-77.79119873046875
Handy Strip,37.4473991394043,-76.45379638671875
Brooklyn Airport,37.688899993896484,-77.10140228271484
Seattle Seaplanes Seaplane Base,47.627601623535156,-122.33200073242188
Floathaven Seaplane Base,48.72819900512695,-122.33599853515625
Streamline Heliport,47.982898712158,-122.03800201416
Dwight Field,46.61709976196289,-122.82599639892578
Curtis Airport,46.59040069580078,-123.1050033569336
Air Columbia Heliport,45.682599,-121.900002
Macon Heliport,47.436238,-120.279515
Ware Mountain Heliport,48.37929916381836,-122.28800201416016
Stevens Memorial Hospital Heliport,47.8036994934082,-122.33399963378906
Shamrock Port Heliport,47.77690124511719,-117.08399963378906
Childrens Hospital Emergency Heliport,47.66400146484375,-122.28099822998047
Naval Station Everett Heliport,47.986460601,-122.224295139
Aurora St Luke's Medical Center Heliport,42.98889923095703,-87.95149993896484
Mort's Landing Airport,45.507198333699996,-92.1418991089
Doering Farms Airfield,43.20140075683594,-88.3333969116211
Aurora Lakeland Medical Center Heliport,42.66170120239258,-88.4968032836914
Snow Crest Ranch Airport,43.82939910888672,-89.35260009765625
Crash In International Airport,42.793399810791016,-87.8906021118164
Simandl Field/Private Airport,42.8736000061,-88.1578979492
With Wings And A Halo Airport,44.1335983276,-88.4992980957
Oconomowoc Airport,43.13890075683594,-88.47229766845703
Mc Manus Hoonch-Na-Shee-Kaw Airport,42.9314002991,-89.3386993408
Rucilla's Roost Airport,48.137298583984375,-123.11299896240234
Shangri-La Airport,46.75189971923828,-120.60199737548828
Coopers Landing Airport,46.127573,-119.014273
Olympia Heliport,46.9640007019043,-122.89199829101562
Potts Field,42.79970169067383,-88.04869842529297
L-Z Blue Thunder Heliport,48.952522,-122.818136
St Elizabeth Hospital Heliport,47.209449,-121.987726
Sheldon Heliport,47.2510986328125,-116.85199737548828
Wings For Christ Airport,48.430464,-119.486058
Rockdale Airport,42.970979,-89.028482
Freedom Air Ranch Airport,43.039722,-111.038056
Dorsey Creek Ranch Airport,44.411111,-108.163333
Parkland Hospital Nr 2 Heliport,32.811537,-96.838976
Kothmann Ranch Heliport,30.678963,-100.130183
Fort Duncan Medical Center Heliport,28.713889,-100.454728
Midstream Freeport Heliport,28.97170066833496,-95.28309631347656
Seven Cs Ranch Airport,27.996901,-98.882202
74 Ranch Airport,28.684900283813477,-98.38279724121094
Jaxon Landing Heliport,33.45000076293945,-101.93900299072266
Bar 3 Ranch Airport,30.66270065,-97.62509918
Ohho Airport,30.27,-98.108299
Methodist Mansfield Medical Center Heliport,32.567223,-97.095596
Diamond H Ranch Airport,28.400299072265625,-99.55870056152344
Rodgers Roost Airport,29.287799835205078,-96.34970092773438
John Fields Ranch Airport,30.555675,-100.53084
South Texas Project Heliport,28.792200088500977,-96.04190063476562
Eds Heliport,33.09170150756836,-96.68609619140625
Southeastern Helicopters Heliport,26.145731,-97.171369
Lakeside Beach Airport,30.500999450683594,-98.14700317382812
Anacacho Ranch Airport,29.193679,-100.280027
Dunbar Ranch Airport,29.07695,-100.371609
French Field,32.13169,-95.33959
Lambert Fechter Municipal Airport,43.16419982910156,-95.47000122070312
Lake Mills Municipal Airport,43.41659927368164,-93.50849914550781
Road Commission Nr 1 Airport,63.10709,-147.542347
Shannons Pond Seaplane Base,59.058998,-158.577191
Hunt Strip,61.592052,-149.677598
North Jackson Hospital Heliport,34.91400146484375,-85.7708969116211
Huntsville Memorial Hospital Heliport,36.09400177001953,-93.74240112304688
Pierce Airport,33.36640167236328,-112.61799621582031
William E Poole Heliport,34.602292,-117.172462
Joe Gottlieb Field,35.368,-119.195
Adventist Health St Helena Heliport,38.543333,-122.475
Silkman Farms Inc. Airport,39.45470047,-102.212997437
Winsted Municipal Airport,44.95000076293945,-94.06690216064453
Rosser Ranch Airport,33.0154,-98.626
Flying Baron Estates Airport,28.797500610351562,-81.93589782714844
Seven Feathers Airport,29.00659942626953,-82.40460205078125
Fishermen's Hospital Emergency Helistop,24.710399627685547,-81.09449768066406
Beaverbrook Aerodrome,33.32509994506836,-84.29830169677734
Flyers Airport,42.41669845581055,-92.25019836425781
Flat Top Airstrip,43.49440002441406,-113.9219970703125
Franciscan Health Rensselaer Heliport,40.934997,-87.138159
Riverside Medical Center Heliport,41.123600006103516,-87.88529968261719
Squires Airport,39.718399,-85.048897
University of Kansas Hospital Heliport,39.056277,-94.608892
Southwest Government Center Heliport,38.148399353027344,-85.83689880371094
Industrial Helicopters Inc. Airport,30.250725,-92.095728
G & J Fly A Way Ultralightport,30.046301,-91.994598
Beaver Lake Seaplane Base,42.26259994506836,-72.30699920654297
Penobscot Valley Hospital Heliport,45.348713,-68.516636
Ascension St Mary's Hospital Heliport,43.425969,-83.939356
Lookout Lake Seaplane Base,46.4375,-93.95610046386719
Eckerts Airstrip,38.914501,-91.704301
Daniel Emergency Response Team Heliport,30.53030014038086,-88.55889892578125
Hoolie Airport,47.83330154418945,-106.48400115966797
Freeman Neosho Hospital Heliport,36.865843,-94.369848
Johnston Farm Airport,36.343101501464844,-77.5093994140625
Smith Strip,47.1875,-102.36199951171875
St Joseph Hospital Heliport,41.265598,-95.954498
Clark Heliport,42.87409973144531,-71.17970275878906
St Francis M C Helistop,40.21839904785156,-74.73880004882812
Glens Falls Hospital Heliport,43.307336,-73.646211
Atrium Health Union Heliport,34.976678,-80.522055
Beaver Meadow Heliport,43.368999,-75.159599
Zoellner Airport,41.402517,-82.629333
Hickory Hills Airport,35.16669845581055,-97.21700286865234
Stevens Mountain Airport,45.781241,-123.221612
Piac Heliport,39.86259841918945,-75.31050109863281
One Meridian Plaza Heliport,39.93069839477539,-75.24410247802734
Wanblee Health Center Heliport,43.563836,-101.660223
Bear Creek Heliport,29.792200088500977,-95.63490295410156
Gottwald Field,29.682746,-97.25288
Flatwood Field,36.0718994140625,-86.35440063476562
Saint's Strip Ultralightport,29.5525,-98.103104
SMC Aerospace Heliport,27.8447,-97.2239
Gilbert Development Corp Heliport,37.172778,-113.434444
Nashs Airport,37.38629913330078,-78.81310272216797
WAVY TV Heliport,36.829702,-76.298344
Mullan Hill Airport,47.5546,-117.413001
Buds Landing Airport,45.11579895019531,-88.18949890136719
Willow Creek Ranch Airport,43.423333,-106.823611
Sterling Airport,28.680794,-96.661647
Flying S Air Ranch Airport,31.779499053955078,-98.9093017578125
Rocking T Ranch Airport,64.001932,-145.501585
Ech Stagefield Army Heliport,31.393699645996094,-85.75150299072266
CHI St. Vincent Hospital Hot Springs Heliport,34.468846,-93.065766
Whetstone Airport,31.683588,-110.290053
Turner Field,36.673301696777344,-119.72200012207031
Hansen Airport,34.630001068115234,-117.65299987792969
Shasta Regional Medical Center Heliport,40.585116,-122.387976
Channel 7 Heliport,39.7253,-104.984
B & L Farms Airport,25.582892,-80.498993
North Okaloosa Medical Center Heliport,30.734808,-86.562293
Williams Field,30.043724,-81.885217
Johnson Field,42.921101,-82.585501
De Kalb General Hospital Heliport,33.7897,-84.282204
Apple 1 Heliport,34.26029968261719,-84.06639862060547
Koch Field,42.349636,-92.513316
Riddle Airport,42.185504,-116.112999
Atterbury Field (Camp Atterbury),39.3417015076,-86.0305023193
Presence St Mary's Hospital - Kankakee Heliport,41.120718,-87.873075
Jr's Airport,39.81890106201172,-86.53810119628906
St Anthony Memorial Hospital Heliport,39.125,-88.55059814453125
Sheller's Airport,39.116695,-95.148904
Southwest Hospital Heliport,38.11589813232422,-85.83609771728516
Tiger Pass Seaplane Base,29.258800506591797,-89.35299682617188
Thacker Airport,40.722514,-88.769108
Jasmine Hill Airport,30.976321,-92.56888
Fulton-Itawamba County Airport,34.35200119018555,-88.3772964477539
Bulljump Airport,41.80730056762695,-70.7583999633789
Tim's Airport,38.42002,-75.63168
Wagner's Landing Heliport,42.738399505615234,-83.4374008178711
Sixberry's Landing Seaplane Base,47.6777,-93.048203
Redgate Ranch Airport,38.90169906616211,-91.63520050048828
Lammers Airport,46.462777,-109.490555
Rocky Top Airfield,36.657916,-92.465578
Candlelight Farms Airport,41.56679916381836,-73.46620178222656
Sprint/Midatlantic Telecom Heliport,36.02149963378906,-78.5188980102539
Kaan Airport,42.442501068115234,-103.91600036621094
Southdown Heliport,40.64070129394531,-74.66419982910156
Hop House Airpark,42.91389846801758,-74.61170196533203
Dosher Heliport,33.9280833,-78.0203889
Saikkonen Airport,42.209162,-76.448979
Hide-A-Way Hills Resort Airport,39.64310073852539,-82.466796875
Unity Airport,44.45130157470703,-118.18699645996094
Fayette County Memorial Hospital Heliport,39.547753,-83.427914
Beefor Ranch Airport,35.06909,-97.38465
Holiday Sky Ranch Airport,43.39350128173828,-123.28500366210938
Sherrie John Manor Heliport,40.2626,-77.045799
Eakin Airport,41.3525,-79.732778
Sekiu Airport,48.2661018371582,-124.31400299072266
Conoco Heliport,29.7894,-95.611099
Flying M Ranch Airport,32.30009841918945,-97.20449829101562
Salem Field,36.474998,-87.366699
PT Enterprise D&W Ranch Airport,31.6579,-96.4114
Butler Airport,33.667813,-96.691971
Flying R Airport,41.2538528,-111.7110611
Chesapeake General Hospital Heliport,36.741798400878906,-76.24410247802734
Devil's Reach Landing Airport,38.20940017700195,-77.00060272216797
Homeport Airport,47.523799896240234,-117.47000122070312
Victory Memorial Hospital Heliport,44.963299,-90.933801
Diedrich Seaplane Base,43.35419845581055,-89.57119750976562
Speed Shore Company Headquarters Heliport,29.597045,-95.369421
Flying Feathers Airport,44.061183,-88.194933
Arkavalley Airport,35.17839813,-92.33540344
Goldberg Stagefield Army Heliport,31.416064,-85.463591
Gibbons Airport,34.515444,-90.973722
Ranta Strip,33.853901,-112.653001
Faber Vineyards Airport,38.10960006713867,-121.16899871826172
Newton Field,36.156898498535156,-119.8499984741211
Richter Airport,39.268306,-122.116689
Omega 1 STOLport,38.83549880981445,-107.81500244140625
Hi-Acres Airport,28.4786,-81.7145
Osceola Regional Medical Center Heliport,28.298854,-81.409872
Timberlachen Seaplane Base,28.59280014038086,-81.40390014648438
Gwinnett Community Hospital D/B/A Eastside Medical Center Heliport,33.875,-84.0205993652
Harvest Lake Seaplane Base,31.73080062866211,-81.35970306396484
Brookville Reservoir Seaplane Base,39.51029968261719,-85
Plueger Airfield,42.800498962402344,-96.13780212402344
Flying B Ranch Landing Strip,44.96799850463867,-114.73300170898438
Pentecost Airport,39.856201171875,-84.97219848632812
Hawker Airport,41.20000076293945,-88.0167007446289
J & S Field,38.11859893798828,-87.64749908447266
Mercer County Hospital Heliport,41.20589828491211,-90.75990295410156
Clinton Elks Lodge Balloonport,40.604587,-74.921538
Sooter Airport,37.935298919677734,-97.48780059814453
John M. Foree Airport,38.46030044555664,-85.1686019897461
Kml Airport,30.27589988708496,-93.3573989868164
Lambdins Field,37.540298,-89.486198
Hains Airstrip,30.178600311279297,-92.28500366210938
Mellen Street Heliport,42.20709991455078,-71.44270324707031
St. Agnes Health Care Heliport,39.27080154418945,-76.67310333251953
Ridgeview Airport,44.32229995727539,-69.2072982788086
John's Airport,43.052551,-83.48977
Eastman Seaplane Base,46.480499,-94.281097
Ferguson Farms Airport,38.580601,-93.594704
Green Acres Airport,31.088757,-91.318059
Lincolns Field,48.774200439453125,-110.44200134277344
Atlantic Field Marine Corps Outlying Field,34.892099,-76.349029
Pietschtree Airstrip,48.2952995300293,-101.427001953125
Reisig Brothers Airport,41.90660095214844,-103.69999694824219
Gile Pond Airport,43.495278,-71.654444
Penske 2 Heliport,40.883999,-74.067919
Westport Airport,44.15840148925781,-73.43289947509766
Columbus Stockyards Airport,31.80835,-107.659401
TGP-245 Heliport,42.873402,-75.170998
Defiance Regional Medical Center Heliport,41.298,-84.377667
McGregor Airfield,39.834773,-84.333486
Expressway Airpark,35.541302,-97.453102
Skinner Ranch Airport,42.95130157470703,-117.28199768066406
Helicopter Applicators Inc Heliport,39.8495,-77.184167
WCAU Heliport,40.007112,-75.216197
Villamil-304 Ponce De Leon Heliport,18.42259979248047,-66.05699920654297
Siple Heliport,39.72380065917969,-75.88140106201172
Monument Municipal Airport,44.8317985534668,-119.43000030517578
Over the Hill Airport,34.14139938354492,-80.74669647216797
Ferris Red Oak Municipal Heliport,32.529866,-96.731122
Channel Two Heliport,29.690200805664062,-95.52770233154297
Curtis Ranch Field,31.312844,-99.24048
Riley Creek Airport,35.823699951171875,-84.53880310058594
Blo Airport,32.908501,-97.977303
D An P Farm Airport,33.593768,-97.100816
Griffin Airport,30.821253,-98.081024
Hop-Along Airport,37.78810119628906,-79.7677993774414
Fowlers Nw 40 Airport,47.52069854736328,-117.46299743652344
Memorial Hospital of Taylor County Heliport,45.13589859008789,-90.3563003540039
Walker Airport,46.911,-117.218667
Crazy Horse Airport,38.3421667,-82.115
Black Diamond Airport,44.45,-108.384667
Wood Farm Airfield,32.0393333,-102.3485833
Mc Croskey Field,34.95470047,-91.83719635010002
Satterbergs Airport,61.654701232910156,-149.89999389648438
Hatch Stagefield Army Heliport,31.358999252319336,-85.62049865722656
Jrmc Heliport,34.187599182128906,-92.01789855957031
Waltenberry Field Ultralightport,33.535,-112.853472222
M H 15 Heaps Peak US Forest Service Heliport,34.2352981567,-117.154998779
Maine Prairie Airport,38.38130187988281,-121.8239974975586
Mann Heliport,40.555599212646484,-106.84400177001953
Ponderosa Heliport,42.629120027899994,-83.683065176
Earle Airpark,29.694400787353516,-81.51370239257812
Yelvington Heliport,28.5186,-81.383102
Gator Lake Heliport,28.277826,-82.32045
Oak Ridge Plantation Airport,31.3666,-83.754898
Holt Airpark,32.360801696777344,-82.31809997558594
Hillside Stables Airport,42.04570007324219,-90.19110107421875
Silva Ranch Airport,44.2666015625,-115.0009994506836
St Joseph Medical Center Heliport,41.07870101928711,-85.14969635009766
Gage Airport,40.81529998779297,-84.92769622802734
Hess Port Reading Heliport,40.64440155029297,-74.24530029296875
Daniel's Landing Airport,37.69779968261719,-97.11029815673828
Miles Airport,37.704812,-87.158586
Evergreen Heliport,29.783599853515625,-93.20850372314453
Henry Valve Company Heliport,41.908889035799994,-87.87408247590001
Tee Brad's Airport,29.993900299072266,-92.3855972290039
Aeronut Park Balloonport,42.60419845581055,-83.85859680175781
Metropolitan Airport,42.223301,-72.311401
Socatean Bay Airport,45.77640151977539,-69.8093032836914
Lee Memorial Hospital Heliport,41.983699798583984,-86.11579895019531
Melby Airport,46.100799560546875,-95.8313980102539
Domeyer Airport,37.67639923095703,-91.70649719238281
Greener Pastures Airpark,30.63330078125,-89.66390228271484
Sorenson Airport,48.52080154418945,-110.11299896240234
Trinca Airport,40.966801,-74.780197
Oak Grove Marine Corps Outlying Field,35.025006,-77.255945
Hock Airport,40.31669998168945,-100.80899810791016
Coffin Brook Landing Heliport,43.423889,-71.248722
Wyeth-Ayerst Research Heliport,40.3651008605957,-74.58290100097656
Quaker Valley Farm Heliport,41.59749984741211,-73.53150177001953
Beaverhead Airstrip,33.419437,-108.142216
Dusenbury Field,36.297634,-80.16207
Health Sciences Center University Hospital Heliport,40.90760040283203,-73.11620330810547
Rose Field,41.330299,-84.298301
"Cleveland Clinic, Union Hospital Heliport",40.515549,-81.456901
McAlester Regional Health Center Heliport,34.936199,-95.748901
Aubrey Mountain Airstrip,43.740699768066406,-122.4260025024414
Rigrtona Airport,41.68259811401367,-79.4520034790039
Richland Acres Ultralightport,40.45429992675781,-75.30460357666016
St. Luke's/Pennstar Flight Center Heliport,40.739200592041016,-75.33390045166016
Jewett Mesa Airport,34.004229,-108.67992
Lake Louise Seaplane Base,62.282901763916016,-146.5189971923828
Grassy Pond Heliport,35.139198,-81.696404
KBMT-TV Heliport,30.073298,-94.133797
Varisco Airport,30.6560001373291,-96.53829956054688
Bear Mountain Heliport,35.59830093383789,-84.26750183105469
Van Es Ranch Airport,27.455299377441406,-98.92639923095703
Allison Ranch Airport,30.533561,-100.451882
State Police Area 48 Office Heliport,38.823853,-77.283073
May Heliport,37.307899475097656,-80.10009765625
Camano Island Airfield,48.25699996948242,-122.43699645996094
Fsa - Everett Heliport,47.9365,-122.25
Nowatzski Field,43.6963996887207,-88.99960327148438
Flying 5B Ranch Airport,31.951789,-97.834888
Presbyterian Hospital Of Rockwall Heliport,32.884444,-96.464444
Littlefork Muni/Hanover Airport,48.41659927,-93.58630371
Loring Seaplane Base,55.6012992859,-131.636993408
Four Corners Airport,61.60150146484375,-149.2480010986328
Highbluff Stagefield Army Heliport,31.153499603271484,-85.73370361328125
Rice-Bell Field Airport,35.0527992249,-90.6750030518
Ruby Star Airpark,31.909494,-111.120293
Hoag Memorial Hospital Heliport,33.625182,-117.930799
Foothill Presbyterian Hospital Heliport,34.133487,-117.870677
Good Pasture Airport,38.097198486328125,-104.91000366210938
Mashantucket Pequot Tribal Nation Heliport,41.484699,-71.9729
Burrs Strip,25.568621,-80.398822
Sunshine Farms Airport,29.9491,-81.490402
Wells Flying Service Airport,30.873458,-87.170296
Latham Creek Heliport,34.33649826049805,-83.94349670410156
Stakely Heliport,34.785499572753906,-85.45369720458984
Bloom Airport,39.633399963378906,-83.7499008178711
Peaceful Cove Airport,43.680999755859375,-116.2030029296875
Kewanee Hospital Heliport,41.235298,-89.9309
De Motte Airport,41.207,-87.212502
Marshall Browning Hospital Heliport,38.025239,-89.237025
G & S Space Port Airport,38.26919937133789,-94.90480041503906
Blue Haven Farm Airport,38.17369842529297,-84.36830139160156
Devonshire Area Heliport,34.256882,-118.531352
Killarny Farm Airport,30.841,-91.508202
Gottlieb Heliport,41.91138164349999,-87.843619287
Go Gulf Heliport,30.47330093383789,-91.04769897460938
Vergnani Heliport,42.049801,-72.6493
Ring Hill Airport,44.79125,-69.071479
East-West Paris Airport,42.850899,-85.567001
Riverwood Healthcare Center Heliport,46.52920150756836,-93.69920349121094
Stevinson Farm Airport,39.049999,-94.316902
Rose Field,32.345298767089844,-89.0342025756836
Holland Ranch Airport,47.05160140991211,-109.07499694824219
Beltzville Airport,40.844755,-75.634217
Camp Davis Mcolf Airport,34.516700744628906,-77.55000305175781
Hagen Private Airport,46.207801818847656,-102.90799713134766
Aaron's Field,40.862499,-98.064201
Cheshire Medical Center Heliport,42.94889831542969,-72.28970336914062
Wuerkers New Acres Farm Heliport,39.0092469445,-74.8879516125
Mountain View Airport,43.34000015258789,-73.47899627685547
Windy's Heliport,40.7975502014,-73.4179000854
Heilman Airport,40.66889953613281,-83.44349670410156
Pleasant Home Gliding Club Gliderport,40.9192008972168,-82.11399841308594
Reherman Airport,35.804199,-97.933701
Air Columbia Heliport,45.71419906616211,-121.51799774169922
Boggs Field,38.82389831542969,-81.34940338134766
Dimascio Field,40.29090118408203,-75.65910339355469
Emp. Coco Beach Golf Club LLC Heliport,18.407301,-65.798751
Hideaway Ultralightport,39.8843994140625,-76.11859893798828
Westport Airport,46.89690017700195,-124.10099792480469
Colmery-O'Neil Vamc Heliport,39.02640151977539,-95.72250366210938
Dean Ranch Airport,29.894161,-98.403826
Smith I-Ranch Airport,30.917624,-99.475771
News Channel 3 Heliport,35.126399993896484,-90.07140350341797
O S Wyatt Airport,27.42169952392578,-98.60449981689453
Mathers Field,36.047147,-100.520803
Keyes Ranch Airport,30.289400100708008,-98.17389678955078
Krens Farm Airport,39.229000091552734,-77.74669647216797
Abilene Airport,37.16913,-78.52092
Lz Ranch Airport,46.970699310302734,-122.73699951171875
Cylon Heliport,45.136944,-92.376667
Lakewood Lodge Airport,45.77799987792969,-91.55850219726562
Snowshoe Resort/Topof the World Heliport,38.4006004333,-79.99579620360001
Frog Pond Airport,33.657888,-96.788285
Isbell Ranch Airport,30.808500289916992,-97.2739028930664
Mark Reynolds/North Mobile County Airport,30.91320037841797,-87.98059844970703
Golden North Airfield,63.37070083618164,-148.85000610351562
Highfalls Stagefield Army Heliport,31.093599319458008,-85.78790283203125
Taylor Airport,34.825901,-90.543297
Quail Mesa Ranch Airport,33.76168,-114.4596
Stanford Health Care East Heliport,37.435195,-122.174588
Hunt Farms Airport,37.34270095825195,-120.40399932861328
Swedish Medical Center Heliport,39.654701232910156,-104.97100067138672
Amistad Ranch Heliport,27.215842,-80.684881
Orange Hill Airport,30.658501,-85.527878
Cannon Creek Airpark,30.150584,-82.66785
Weltzien Skypark Airport,41.02840042114258,-81.79850006103516
Darla's Airport,32.680198669433594,-82.47899627685547
Stella Airport,42.235396,-90.406767
Scanlon Airport,47.68560028076172,-117.03800201416016
Findlay Heliport,40.33890151977539,-86.94080352783203
Gittleson Farms Airport,41.797298431396484,-89.27320098876953
Bugtown Airport,38.15060043334961,-87.84030151367188
Sickler Airstrip,38.430599212646484,-96.08830261230469
Air Evac 109 Heliport,37.133803,-83.758258
Brennan Farm Airport,38.15700149536133,-84.30159759521484
Creole Heliport,29.790199,-93.184097
Cloverleaf Ranch Airport,41.23749923706055,-89.53669738769531
Port of Iberia Heliport,29.944700241088867,-91.83709716796875
Canapitsit Airport,41.42251,-70.909295
Eagle Field,43.81529998779297,-70.22920227050781
Grant Pad Heliport,42.543411,-82.93342
Tyler Farms Airport,45.26219940185547,-94.51069641113281
Applegate Airport,40.391998291015625,-92.56549835205078
Saubak Airport,48.50040054321289,-105.91000366210938
Jenkins Airport,39.119598388671875,-75.58380126953125
Dragonfly Field,36.23970031738281,-76.9738998413086
Sindt Airport,40.291099548339844,-98.82340240478516
Nashua Technology Park Heliport,42.708333,-71.458333
Werner Heliport,40.42509841918945,-74.09960174560547
Knox Landing Airport,42.576401,-78.556702
Anson Hospital Heliport,34.977055,-80.110208
Peninsula Hospital Center Heliport,40.591800689697266,-73.78009796142578
Twin City Hospital Heliport,40.40230178833008,-81.33709716796875
Firelands Community Hospital Nr 1 Heliport,41.43619918823242,-82.71099853515625
Bluebird Airport,35.703889,-95.310833
Camp Rilea Heliport,46.1159964394,-123.931392431
Cavage Personal Use Airport,41.59429931640625,-75.35549926757812
Metropolitan Edison Heliport,40.375099182128906,-75.9384994506836
Jennersville Hospital Heliport,39.822576,-75.888127
Lester State Ultralightport,47.2150993347168,-121.46199798583984
Watertown / Brownlee Heliport,44.883264878199995,-97.1080899239
J R Ranch Airport,30.9367,-97.89932
Arco High Island Heliport,29.625454,-94.198422
Indian Path Medical Center Heliport,36.55160140991211,-82.51519775390625
Owens Country Sausage Heliport,32.98680114746094,-96.69750213623047
Ed Shadle Airport,32.299414,-98.325601
Fox Acres Airport,38.7223014831543,-77.89969635009766
Dennis Farms Airport,42.894500732421875,-84.39029693603516
Sunset Airport,48.27230072,-122.3570023
Peterson Field,42.9275016784668,-89.41819763183594
Toy Airpark,29.332700729370117,-95.33409881591797
Nunapitchuk Airport,60.905591,-162.440454
Gattis Strip,61.596643,-149.339926
Hooper Stagefield Army Heliport,31.40839958190918,-85.68920135498047
Heifer Creek Ranch Airport,35.30110168457031,-92.57330322265625
Yav'pe Ma'ta Airport,34.5088996887207,-112.68000030517578
Police Pistol Range Heliport,37.719398498535156,-122.4990005493164
Mother Lode Service Center Heliport,38.08330154418945,-120.54100036621094
Dry Pen Airport,39.40227,-108.07602
Nemours A I Dupont Children's Hospital Ground Heliport,39.780906,-75.555767
Little Deer Airport,26.030899047851562,-81.0386962890625
Skinners Wholesale Nursery Airport,29.405000686645508,-81.49590301513672
J-22 Ranch Airport,30.725184,-87.200769
Galleria Heliport,33.885101318359375,-84.46269989013672
Stangl STOLport,41.88079833984375,-94.7771987915039
Bear Lake Memorial Hospital Helipad,42.3163986206,-111.299003601
Harrington Field,41.183101654052734,-86.93360137939453
Harold Bunger Airport,42.06669998168945,-88.8333969116211
Deaconess Hospital Heliport,37.984119,-87.572095
Kellums Airport,37.577608,-89.008583
Port Alice Seaplane Base,55.803,-133.597
Praise God Airport,38.444,-83.122704
Arrow Aviation Company Heliport,30.084999084472656,-91.92389678955078
Oak Landing Heliport,42.29999923706055,-88.38059997558594
Atchafalaya Flying Company Airport,30.944401,-91.7939
Lawrence General Hospital Heliport,42.709800720214844,-71.15059661865234
High Valley Airport,39.668611,-75.960278
Presque Isle Heliport,46.675919,-67.998981
Barnstormers 5 Airport,42.889198303222656,-83.8666000366211
Baudette Flying Service Seaplane Base,48.83190155029297,-94.70439910888672
Findley Field,38.405601501464844,-91.15740203857422
Iuka Hospital Heliport,34.80670166015625,-88.20999908447266
Bangart Field,45.40520095825195,-109.12999725341797
Lee's Airport,36.19609832763672,-76.66529846191406
Korver Airport,40.560001373291016,-96.49169921875
Bossey's Seaplane Base,43.60419845581055,-71.51249694824219
Hummel Seaplane Base,39.93730163574219,-74.13569641113281
Delaware Valley Hospital Heliport,42.16239929199219,-75.12799835205078
Station 241 Heliport,42.939804,-76.114899
Lutheran Hospital Heliport,41.354198,-81.708199
Trump Airport,40.125301361083984,-84.5824966430664
Lower Forty Airport,35.466702,-97.200302
Pap√© Bros Inc Heliport,44.147598,-123.059998
Gregg Airport,40.180599212646484,-80.12760162353516
Oakdale Army Heliport,40.3966825974,-80.15811681750002
Myrtle Creek Municipal Airport,42.99850082397461,-123.30999755859375
Southern Aero Sports Airport,34.625099182128906,-81.89839935302734
Madison Community Hospital Heliport,43.990661,-97.117349
Seven Springs Airport,30.919701,-103.782997
Holly Lake Ranch Airport,32.697601318359375,-95.20770263671875
Lincoln Medical Center Heliport,35.150299072265625,-86.5553970336914
Pineridge STOLport,32.22269821166992,-95.31800079345703
16 L Ranch Airport,31.093611,-96.04375
Ratliff Airport,32.263002,-98.110609
Smith Heliport,39.150101,-78.2164
Little Goose Lock and Dam Airport,46.583931,-118.003972
Tightcliff Airport,47.84469985961914,-117.69400024414062
Lac Vieux Desert Seaplane Base,46.12160110473633,-89.12100219726562
Propwash Airport,33.0806999206543,-97.35890197753906
Texoma Medical Center Heliport,33.709586,-96.5838
Outlaw Flyers Airport,30.404367,-95.35985
Mc Grath Seaplane Base,62.9580001831,-155.593002319
Ketchikan /Temsco H/ Heliport,55.382999420166016,-131.73500061035156
Hunt Stagefield Army Heliport,31.380199432373047,-85.5802993774414
Bredlow Farm Airport,34.5531005859375,-92.09140014648438
Gilbert Emergency Hospital Heliport,33.314072,-111.687382
Doctors Medical Center Heliport,37.953698,-122.337275
Las Trancas Airport,37.088545,-122.273691
Skylane Ranch Airport,40.272258,-105.032625
Cotton Strip,26.71339988708496,-81.535400390625
Sheriffs Helistop,27.9,-81.8451
Jumbolair-Greystone Airport,29.277416,-82.120709
Panther Creek Airport,33.46670150756836,-84.86609649658203
Coyote Ridge Airport,44.41389846801758,-116.59100341796875
Dreessen Field,41.45000076293945,-86.51029968261719
Pruss Airport,38.978401,-85.109703
Tevis Airport,38.5028,-95.6772
Lester Airfield,37.393902,-87.258904
Shell Venice Terminal Heliport,29.2708,-89.3545
Oink Acres Airport,40.160599,-88.410301
Yankee Field,30.611979,-91.985704
Long Hill Heliport,42.504798889160156,-71.77839660644531
Johns Hopkins Hospital Critical Care Tower Heliport,39.296011,-76.592109
Bresett's Mountainside Airport,47.201377,-67.992432
Grace Hospital Heliport,42.41780090332031,-83.18299865722656
Jackson Seaplane Base,46.7169,-93.210197
Rgl Field,38.98500061035156,-91.53489685058594
River Region Medical Center Heliport,32.373600006103516,-90.82360076904297
Abel Ranch Airport,48.10710144042969,-114.177001953125
B-B Airfield,39.682791,-94.372097
Mitchell Field,34.46630096435547,-78.32859802246094
Jefferson County Memorial Hospital Heliport,40.15719986,-97.17639923
Pomroy Heliport,42.82389831542969,-71.36499786376953
CMC Steel New Jersey Heliport,40.486198,-74.322098
Re-Dun Field,42.53950119018555,-76.94830322265625
Zombie Air Force Airport,34.78325,-78.577008
Station 233 Heliport,42.84870147705078,-77.92030334472656
Eugene Fire Station #2 Heliport,44.058406,-123.119032
Kosik Private Airport,41.24259948730469,-82.27020263671875
Haas Airport,39.22669982910156,-83.31770324707031
J-B Airstrip,36.525002,-97.758698
Glide Aero Airport,43.264198303222656,-123.11000061035156
Kelly Heliport,40.44179916381836,-75.32460021972656
Tobyhanna Army Depot Heliport,41.19834,-75.43656
Mountain Crest Airport,41.579200744628906,-79.44170379638672
Chehalem Airpark,45.323699951171875,-123.05400085449219
Carolina Cow Country Airport,34.53260040283203,-81.88619995117188
Stone's Conservation Airport,44.818642,-96.564016
Heli-Dyne Systems Inc Heliport,32.80099868774414,-97.17949676513672
Comfort Airpark,29.929100036621094,-98.94029998779297
Murphy Field,36.299400329589844,-82.60420227050781
Big Bend Regional Medical Center Heliport,30.384700775146484,-103.66899871826172
Allen Condo/Tower Heliport,29.760111,-95.382389
Kimzey Airport,32.443395,-98.255024
Jake Garn Airport,40.26369857788086,-112.02100372314453
F.B. Fowler Heliport,37.280899,-82.102097
Roesler Timber Company Heliport,47.86819839477539,-121.75299835205078
Ha-Rail Airport,43.03609848022461,-88.89320373535156
Jacksonville / Hunter Field,32.017778,-95.7969444445
Quahadi Ranch Airport,32.177799224853516,-98.43499755859375
18 Meadows Aerodrome,59.313222,-135.72322
North Douglas Heliport,58.33219909667969,-134.4969940185547
Louisville Stagefield Army Heliport,31.816699981689453,-85.65180206298828
Buck Mountain Airport,36.344200134277344,-93.83170318603516
Sky Ranch At Carefree Airport,33.818536,-111.898327
Twin Cities Community Hospital Heliport,35.55500030517578,-120.71900177001953
Bowles Airport,39.2859992980957,-121.69400024414062
Rangely District Hospital Heliport,40.0807991027832,-108.80400085449219
Tropical Plantation Airport,27.099405,-80.296005
Skypark Estates Owners Assoc Airport,30.853394,-86.667214
Bahia Beach Heliport,27.731072,-82.475878
Sleepy Hollow Airport,33.693199157714844,-83.65769958496094
Brandt Field,21.137026,-156.734498
Elmore Medical Center Heliport,43.13890075683594,-115.69400024414062
Mc Gill Airport,40.1199989319,-86.0682983398
AMITA Health Medical Center La Grange Heliport,41.79699,-87.887281
Kester Fly Inn Airport,39.27840042114258,-87.4135971069336
Allstate South Barrington Plaza Heliport,42.069374,-88.174813
Skamokawa East Valley Airport,46.284698486328125,-123.44300079345703
Fowler Airport,37.38420104980469,-100.18599700927734
Cherokee Strip,37.372435,-97.108223
Marshall County Hospital Heliport,36.86259841918945,-88.35279846191406
Camp Beauregard Army National Guard Heliport,31.383499145507812,-92.40010070800781
Omni Mouton Cove Heliport,29.89189910888672,-92.16829681396484
Holy Family Hospital Heliport,42.72779846191406,-71.16829681396484
MedStar Montgomery Medical Center Heliport,39.154705,-77.055012
Ruby Airport,43.893597,-69.495406
Vacottage Heliport,42.95859909057617,-84.6405029296875
Hines Farm Airport,46.23720169067383,-94.59310150146484
Gimlin Airport,36.96260070800781,-93.17070007324219
Fish Ranch Airport,45.215999603271484,-113.4990005493164
Lanni Field,35.888999938964844,-81.61370086669922
Doc's Airport,40.51390075683594,-97.61060333251953
Catholic Medical Center Heliport,42.99161,-71.474234
Manalapan Township-Village Green Heliport,40.279598236083984,-74.32929992675781
Strip in the Woods Airport,42.01649856567383,-74.04900360107422
Jer-Mar Airpark,41.25619888305664,-82.143798828125
Boggy Bottoms Airport,41.419615,-82.97133
Comanche County Memorial Hospital Heliport,34.608303,-98.442081
Red's Field,45.0918655396,-123.182350159
Slack Airport,40.30009841918945,-75.08290100097656
Spud View Airport,40.065399169921875,-77.69280242919922
Connelly Field,34.27399826049805,-81.77339935302734
Lost Creek Airport,44.702429,-99.070351
West Kerr Ranch Airport,30.13629913330078,-99.74369812011719
Alert Field,32.585201263427734,-95.06390380859375
North Valley Medical Center Heliport,35.387956,-85.380258
Brackenridge Hospital Heliport,30.27375,-97.734772
Flying 'T' Ranch Airport,32.95249938964844,-96.22810363769531
Airmed Tooele Heliport,40.552259,-112.293797
English Heliport,37.10380172729492,-79.30110168457031
Springfield Hospital Heliport,43.298465,-72.494588
Pasco Heliport,46.375,-119.20600128173828
Leach Farms Heliport,44.0880012512207,-88.92539978027344
Lynn Airport,39.41,-79.856667
Lantana Ridge Airport,28.6591,-97.5987472
Gardner Farm Airport,33.80009841918945,-101.03399658203125
Milaca Municipal Airport,45.772499084472656,-93.6322021484375
Icy Bay Airport,59.966269,-141.660118
Molinelli Stagefield Army Heliport,31.48240089416504,-85.78510284423828
Naylor field,35.15670013,-92.22419739
Montezuma Airport,34.604493,-111.864795
Palisades Ranch Airport,34.7122,-117.350999
UCH-MHS Memorial Central Heliport,38.840375,-104.799385
Osceola Sheriff's Office Bronson Highway Heliport,28.275101,-81.336502
The Villages Heliport,28.980600357055664,-81.9906005859375
Willow Pond Aviation Inc Airport,33.424039,-84.498367
Ancam Antique Airfield,40.8568000793457,-91.20379638671875
Race Creek Heliport,45.4412222,-116.3993778
Henry County Memorial Hospital Heliport,39.94309997558594,-85.36470031738281
Eagle Pass Airport,40.549404,-89.106003
Clark Airport,40.19449996948242,-86.52310180664062
Skillet Fork Farm Airport,38.2958984375,-88.55699920654297
Schultz Field,37.619998931884766,-95.45860290527344
Conrads Airport,38.70650100708008,-84.59989929199219
Region 1 Headquarters-State Police Heliport,30.447701,-91.103104
Neiner Airport,41.25699996948242,-87.91950225830078
Riverside Medical Center Heliport,30.834444,-90.153611
Waine Heliport,41.285099029541016,-70.14969635009766
Mecosta County General Hospital Heliport,43.69490051269531,-85.47380065917969
Greseth Seaplane Base,45.174765,-93.765091
North Patrol Div Station Heliport,39.245025,-94.591486
N Bar Ranch Airport,46.838111,-108.936833
Double S Airport,36.06489944458008,-77.9229965209961
Breckheimer Airport,47.733299255371094,-98.48870086669922
Hoyt Airport,40.108299255371094,-100.80899810791016
Lorden II Heliport,42.978194,-71.693806
American Cyanamid Helistop,40.29180145263672,-74.6771011352539
Riveredge Airpark,43.243900299072266,-76.15280151367188
Four Seasons Airport,42.40620040893555,-77.96080017089844
Harris Corn Field,41.1731,-82.059303
Airc Helistop,40.38079833984375,-80.70539855957031
Gerhart Airport,35.72840118408203,-95.97720336914062
Nelson Ranch Airport,45.10960006713867,-121.2239990234375
Port Protection Seaplane Base,56.328800201416,-133.61000061035
Lake Airport,41.117000579833984,-76.52079772949219
Spooky Nook Heliport,40.106389,-76.423333
Sexton Airport,34.353833,-81.802358
Tan Tar A Resort Seaplane Base,38.12596,-92.71642
Lagrone Ranch Airport,32.82229995727539,-96.41690063476562
Cut and Shoot Airport,30.3169,-95.333504
Ferraraccio Field,36.4994010925293,-87.19029998779297
KVUE-TV Heliport,30.36528,-97.737658
Woody McClellan Ranch Airport,31.238199,-97.514198
Flying W Airport,36.88970184326172,-82.29779815673828
Key Way Airport,45.719600677490234,-121.88600158691406
Erickson Field,45.1952018737793,-92.05709838867188
Baylor Scott & White Medical Center Irving Heliport,32.834352,-96.96187
Draggintail Acres Airport,32.29719924926758,-97.08689880371094
Green Acres Airport,42.14870071411133,-73.7509994506836
Arthur Airport,47.11109924316406,-97.2072982788086
Empire Airport,40.577999,-119.352997
Craig Cg Heliport,55.47520065307617,-133.14599609375
Crevice Creek Airport,67.3729019165039,-152.01600646972656
Crosswind Lake Airport,62.400901794433594,-146.01300048828125
Kenai River Airpark,60.5242,-150.751999
Offshore Systems-Kenai Heliport,60.738876,-151.311613
Talachulitna River Airport,61.856262,-151.397521
Valdez Hospital Heliport,61.136600494384766,-146.34500122070312
Talaheim Airport,61.67689895629883,-151.38699340820312
Tundra Copter Heliport,64.815399,-147.862145
Marshall Medical Center South Heliport,34.220412,-86.160439
Decatur General Hospital Heliport,34.59080123901367,-86.97219848632812
Tri-L Acres Airport,33.248600006103516,-86.59750366210938
Russell Lands Heliport,32.795833,-85.974998
Elsanor Airport,30.544700622558594,-87.55940246582031
Berry Field,30.63640022277832,-87.747802734375
Monroe County Hospital Heliport,31.497800827026367,-87.32109832763672
